_id,Inspection ID,Facility ID,Facility Name,Facility Address,Facility Address 2,Facility Municipality Name,Facility City,Facility County,Facility State,Facility Postal Code,Facility Latitude,Facility Longitude,Venue Type,Inspection Date,Inspection End,Inspection Purpose,Inspection Passed,Inspection Number,Inspector Name,"Free Chlorine, Shallow","Free Chlorine, Deep","Combined Chlorine, Shallow","Combined Chlorine, Deep","Free Bromine, Shallow","Free Bromine, Deep","pH Value, Shallow","pH Value, Deep",Cyanuric Acid,Turnover,Enclosure,Main Drain Visible,Safety Equipment,Disinfectant Level,pH Balance,No Imminent Health Hazards,Abated Date
277201,196055,7695,STAYBRIDGE SUITES POOL,239 SUMMIT PARK DRIVE,,North Fayette Township,Pittsburgh,Allegheny County,PA,15275,40.448313,-80.1784215,POOLS (INDOOR),2021-10-18T12:25:00,2021-10-21T13:30:00,INITIAL INSPECTION,t,1,MANOWN MARYANN,4.5,,0.5,,,,7.2,,,65,t,t,f,t,t,t,2022-10-24
277202,196136,1964,ATRIUM CONDO,307 S DITHRIDGE STREET,,Pittsburgh,PITTSBURGH,Allegheny County,PA,15213,40.445424,-79.950051,POOL (CONDO INDOOR),2021-10-21T10:00:00,2021-10-26T10:45:00,INITIAL INSPECTION,f,1,ANDERSON IAN,2.6,,0,,,,7.8,,,115,t,t,t,t,t,t,2021-10-29
277203,196223,2379,HOLIDAY INN EXPRESS / PARKWAY CENTER INN - POOL,875 GREENTREE ROAD,,Green Tree,PITTSBURGH,Allegheny County,PA,15220,40.424517,-80.041743,POOLS (INDOOR),2021-10-28T15:25:00,2021-10-29T16:05:00,INITIAL INSPECTION,f,1,WILSON ANGELA,,,,,5.2,,7.6,,,70,t,t,t,t,t,t,2021-10-29
277204,196340,4401,HOLIDAY INN EXPRESS & SUITES / NORTH SHORE POOL,228 FEDERAL  STREET,,Pittsburgh,PITTSBURGH,Allegheny County,PA,15212,40.448781,-80.004204,POOLS (INDOOR),2021-11-03T13:45:00,2021-11-04T14:35:00,INITIAL INSPECTION,f,1,NOBBS SCOTT,,,,,7.65,,7.4,,,65,t,t,t,t,t,t,2021-11-08
277205,196560,2493,CMU / AQUATIC CENTER LAP POOL,5000 FORBES AVENUE,,Pittsburgh,PITTSBURGH,Allegheny County,PA,15217,40.444209,-79.9433955,POOLS (SCHOOLS),2021-11-10T02:15:00,2021-11-12T02:45:00,INITIAL INSPECTION,f,1,MURPHY COLLEEN,3.5,,0,,,,7.4,,,600,t,t,t,t,t,t,2021-11-15
277206,196608,69,DUQUESNE UNIVERSITY / INDOOR POOL,1345 VICROY STREET,,Pittsburgh,PITTSBURGH,Allegheny County,PA,15282,,,POOLS (SCHOOLS),2021-11-12T01:15:00,2021-11-15T01:45:00,INITIAL INSPECTION,t,1,MURPHY COLLEEN,2.4,,0,,,,7.5,,,325,t,t,f,t,t,t,2022-01-19
277207,196656,6243,STAYBRIDGE SUITES CRANBERRY POOL,915 BRUSH CREEK ROAD,,Marshall Township,WARRENDALE,Allegheny County,PA,15086,40.661658,-80.0979525,POOLS (INDOOR),2021-11-17T14:50:00,2021-11-18T15:20:00,INITIAL INSPECTION,t,1,NOBBS SCOTT,,,,,2.25,,7.6,,,65,t,t,t,t,t,t,2021-12-21
277208,196701,4943,EMBASSY SUITES BY HILTON / POOL ,535 SMITHFIELD  STREET,,Pittsburgh,PITTSBURGH,Allegheny County,PA,15222,40.441392,-79.99803,POOLS (INDOOR),2021-11-17T10:30:00,2021-11-19T11:00:00,INITIAL INSPECTION,t,1,MURPHY COLLEEN,3,,0,,,,7.2,,,35,t,t,f,t,t,t,2022-01-20
277209,196708,1409,WYNDHAM GRAND PITTSBURGH - POOL,600 COMMONWEALTH PLACE,,Pittsburgh,PITTSBURGH,Allegheny County,PA,15222,40.441734,-80.0064045,POOLS (INDOOR),2021-11-17T01:00:00,2021-11-19T01:30:00,INITIAL INSPECTION,f,1,MURPHY COLLEEN,,,,,6,,7.8,,,90,t,t,t,t,t,t,2021-11-19
277210,196709,1410,WYNDHAM GRAND PITTSBURGH - SPA,600 COMMONWEALTH PLACE,,Pittsburgh,PITTSBURGH,Allegheny County,PA,15222,40.441734,-80.0064045,SPA/HOT TUB (INDOOR),2021-11-17T01:30:00,2021-11-19T02:00:00,INITIAL INSPECTION,f,1,MURPHY COLLEEN,,,,,6,,7.2,,,35,t,t,t,t,t,t,2021-11-19
277211,196744,6464,DRURY INN AIRPORT SPA,101 RIDGE ROAD,,Robinson Township,PITTSBURGH,Allegheny County,PA,15205,40.437522,-80.153838,SPA/HOT TUB (INDOOR),2021-11-17T11:10:00,2021-11-22T11:45:00,INITIAL INSPECTION,t,1,MANOWN MARYANN,,,,,10,,7.6,,,50,t,t,f,t,t,t,
277212,196745,6463,DRURY INN AIRPORT POOL,101 RIDGE ROAD,,Robinson Township,PITTSBURGH,Allegheny County,PA,15205,40.437522,-80.153838,POOLS (INDOOR),2021-11-17T11:45:00,2021-11-22T12:20:00,INITIAL INSPECTION,t,1,MANOWN MARYANN,,,,,10,,7.4,,,55,t,t,f,t,t,t,
277213,196849,2512,HOSANNA HOUSE POOL,807 WALLACE AVENUE,,Wilkinsburg,PITTSBURGH,Allegheny County,PA,15221,40.443705,-79.8805665,POOLS (INDOOR),2021-11-29T08:45:00,2021-11-29T09:15:00,INITIAL INSPECTION,f,1,MURPHY COLLEEN,,,,,,,,,,,t,t,t,t,t,t,2021-11-30
277214,196911,5763,HOLIDAY INN EXPRESS MONROEVILLE POOL,3936 MONROEVILLE BOULEVARD,,Monroeville,MONROEVILLE,Allegheny County,,15146,40.437072,-79.7773005,POOLS (INDOOR),2021-11-30T08:45:00,2021-12-01T09:30:00,INITIAL INSPECTION,f,1,MURPHY COLLEEN,2,,0,,,,7.6,,,65,t,t,t,t,t,t,2021-12-01
277215,197022,7261,SPRINGHILL SUITES MONROEVILLE POOL,122 DAUGHERTY DRIVE,,Monroeville,Monroeville,Allegheny County,PA,15146,40.435839,-79.754346,POOLS (INDOOR),2021-12-06T08:45:00,2021-12-06T09:30:00,INITIAL INSPECTION,t,1,MURPHY COLLEEN,4,,0.2,,,,7.4,,,45,t,t,f,t,t,t,2022-04-19
277216,197070,293,COMFORT SUITES POOL,750 ATEN ROAD,,Findlay Township,CORAOPOLIS,Allegheny County,PA,15108,40.458483,-80.192628,POOLS (INDOOR),2021-12-06T11:50:00,2021-12-07T12:25:00,FOLLOW UP INSPECTION,t,2,MANOWN MARYANN,1,,1,,,,,,,,t,t,f,t,t,t,2022-11-16
277217,197128,1399,HOME 2 SUITES POOL,8630 DUNCAN AVENUE,,McCandless,PITTSBURGH,Allegheny County,PA,15237,40.561668,-80.0270325,POOLS (INDOOR),2021-12-08T15:00:00,2021-12-09T15:40:00,INITIAL INSPECTION,t,1,NOBBS SCOTT,2,,1,,,,7.4,,,75,t,t,f,t,t,t,2022-02-15
277218,197133,1233,LA FITNESS NORTH HILLS POOL,8700 DUNCAN AVENUE,,McCandless,MC CANDLESS,Allegheny County,PA,15237,40.562811,-80.026578,POOLS (INDOOR),2021-12-08T14:30:00,2021-12-09T14:40:00,FOLLOW UP INSPECTION,t,4,NOBBS SCOTT,,,,,,,,,,,t,t,f,t,t,t,2021-12-14
277219,197154,1995,PGH COLFAX K - 8 POOL,2332 BEECHWOOD BOULEVARD,,Pittsburgh,PITTSBURGH,Allegheny County,PA,15217,40.433058,-79.9153605,POOLS (SCHOOLS),2021-12-10T09:30:00,2021-12-10T10:15:00,INITIAL INSPECTION,f,1,MURPHY COLLEEN,2.4,,0,,,,7.6,,,110,t,t,t,t,t,t,2021-12-10
277220,197212,2456,VIRGINIA MANSIONS CONDO SPA,2120 GREENTREE ROAD,,Scott Township,PITTSBURGH,Allegheny County,PA,15220,40.392324,-80.0710245,SPA/HOT TUB (INDOOR),2021-12-13T10:35:00,2021-12-14T10:37:00,FOLLOW UP INSPECTION,t,4,WILSON ANGELA,,,,,,,,,,,t,t,t,t,t,t,2021-12-15
277221,197438,2463,SOUTH FAYETTE JR / SR HIGH SCHOOL POOL,3700 OLD OAKDALE ROAD,,South Fayette Township,MCDONALD,Allegheny County,PA,15057,40.377375,-80.170965,POOLS (SCHOOLS),2021-12-28T10:00:00,2021-12-30T10:15:00,FOLLOW UP INSPECTION,t,2,WILSON ANGELA,,,,,,,,,,,t,t,f,t,t,t,2022-10-14
277222,197652,1409,WYNDHAM GRAND PITTSBURGH - POOL,600 COMMONWEALTH PLACE,,Pittsburgh,PITTSBURGH,Allegheny County,PA,15222,40.441734,-80.0064045,POOLS (INDOOR),2021-12-28T11:30:00,2022-01-14T11:45:00,INITIAL INSPECTION,f,1,MURPHY COLLEEN,,,,,,,,,,,t,t,t,t,t,t,2021-12-28
277223,197658,2320,YMCA /SEWICKLEY VALLEY / SPA,625 BLACKBURN ROAD,,Sewickley,SEWICKLEY,Allegheny County,PA,15143,40.543209,-80.179974,SPA/HOT TUB (INDOOR),2022-01-13T12:00:00,2022-01-14T12:30:00,INITIAL INSPECTION,t,1,LAURIA D. ANTHONY,,,,,4,,7.5,,,80,t,t,f,t,t,t,2022-03-03
277224,197661,2318,YMCA / SEWICKLEY / POOL,625 BLACKBURN ROAD,,Sewickley,SEWICKLEY,Allegheny County,PA,15143,40.543209,-80.179974,POOLS (INDOOR),2022-01-13T10:50:00,2022-01-14T11:30:00,INITIAL INSPECTION,t,1,LAURIA D. ANTHONY,2,2,2,2,,,7.4,7.4,,600,t,t,f,t,t,t,2022-03-03
277225,198052,2512,HOSANNA HOUSE POOL,807 WALLACE AVENUE,,Wilkinsburg,PITTSBURGH,Allegheny County,PA,15221,40.443705,-79.8805665,POOLS (INDOOR),2022-02-02T09:30:00,2022-02-11T10:00:00,INITIAL INSPECTION,f,1,MURPHY COLLEEN,3,,0,,,,7.6,,,160,t,t,t,t,t,t,2022-02-02
277226,198053,2512,HOSANNA HOUSE POOL,807 WALLACE AVENUE,,Wilkinsburg,PITTSBURGH,Allegheny County,PA,15221,40.443705,-79.8805665,POOLS (INDOOR),2022-02-02T09:30:00,2022-02-11T10:00:00,INITIAL INSPECTION,f,1,MURPHY COLLEEN,3,,0,,,,7.6,,,75,t,t,t,t,t,t,2022-02-14
277227,198087,2153,LONGWOOD AT OAKMONT INDOOR CONDO SPA,500 COXCOMB HILL ROAD,,Plum,VERONA,Allegheny County,PA,15147,40.526397,-79.807095,SPA/HOT TUB (INDOOR),2022-02-11T11:15:00,2022-02-14T11:29:00,INITIAL INSPECTION,f,1,WILSON ANGELA,,,,,6.75,,7.2,,,90,t,t,t,t,t,t,2022-02-14
277228,198211,526,MASONIC VILLAGE @ SEWICKLEY WELLNESS CENTER,1000 MASONIC DRIVE,,Aleppo Township,SEWICKLEY,Allegheny County,PA,15143,40.530024,-80.142714,SPA/HOT TUB (INDOOR),2022-02-22T13:00:00,2022-02-23T13:30:00,INITIAL INSPECTION,f,1,LAURIA D. ANTHONY,2.4,2.4,0,0,,,7.6,7.6,,210,t,t,t,t,t,t,2022-03-01
277229,198231,2318,YMCA / SEWICKLEY / POOL,625 BLACKBURN ROAD,,Sewickley,SEWICKLEY,Allegheny County,PA,15143,40.543209,-80.179974,POOLS (INDOOR),2022-02-23T14:45:00,2022-02-24T14:55:00,FOLLOW UP INSPECTION,t,2,LAURIA D. ANTHONY,,,,,,,7.4,,,600,t,t,f,t,t,t,2022-03-03
277230,198232,2319,YMCA /SEWICKLEY VALLEY/ SMALL POOL,625 BLACKBURN ROAD,,Sewickley,SEWICKLEY,Allegheny County,PA,15143,40.543209,-80.179974,POOLS (INDOOR),2022-02-23T15:00:00,2022-02-24T15:10:00,FOLLOW UP INSPECTION,t,2,LAURIA D. ANTHONY,,,,,,,7.4,,,110,t,t,f,t,t,t,2022-03-03
277231,198293,1007,LA FITNESS PLEASANT HILLS POOL,601 CLAIRTON BOULEVARD,,Pleasant Hills,PITTSBURGH,Allegheny County,PA,15236,40.332177,-79.9441785,POOLS (INDOOR),2022-02-28T15:00:00,2022-03-01T16:00:00,INITIAL INSPECTION,t,1,CONLEY FAON,4.2,4.2,0.2,0.2,,,7.2,7.2,,0,t,t,t,t,t,t,2023-05-10
277232,198384,213,HOLIDAY INN EXPRESS POOL,3053 WASHINGTON PIKE,,South Fayette Township,BRIDGEVILLE,Allegheny County,PA,15017,40.352292,-80.112681,POOLS (INDOOR),2022-03-07T10:20:00,2022-03-07T10:39:00,INITIAL INSPECTION,t,1,WOLFE CURRIER,1.2,,0.8,,,,7.6,,,18,t,t,t,t,t,t,2022-03-10
277233,198419,9337,HIGHPOINT FITNESS LAP POOL,1000 HIGBEE DRIVE,,Bethel Park,Bethel Park,Allegheny County,PA,15102,40.337505,-80.0215425,POOLS (INDOOR),2022-03-08T13:00:00,2022-03-09T14:00:00,INITIAL INSPECTION,f,1,CONLEY FAON,3,3,0,0,,,7.6,7.6,,250,t,t,t,t,t,t,2022-03-14
277234,198425,9339,HIGHPOINT FITNESS THERAPY POOL,1000 HIGBEE DRIVE,,Bethel Park,BETHEL PARK,Allegheny County,PA,15102,40.337505,-80.0215425,POOLS (INDOOR),2022-03-08T13:00:00,2022-03-09T14:00:00,INITIAL INSPECTION,f,1,CONLEY FAON,3,3,0,0,,,7.6,7.6,,340,t,t,t,t,t,t,2022-03-14
277235,198457,1960,PITTSBURGH FRICK SCIENCE & TECHNOLOGY POOL,107 THACKERAY STREET,,Pittsburgh,PITTSBURGH,Allegheny County,PA,15213,40.443498,-79.957683,POOLS (INDOOR),2022-03-09T09:00:00,2022-03-11T09:50:00,INITIAL INSPECTION,t,1,WILSON ANGELA,2.2,,0,,,,7.4,,,,t,t,f,t,t,t,2023-08-03
277236,198825,10317,WINCHESTER ASSOCIATION POOL,540 N NEVILLE STREET,,Pittsburgh,Pittsburgh,Allegheny County,PA,15213,40.449078,-79.9484265,POOL (CONDO INDOOR),2022-04-05T15:00:00,2022-04-06T15:30:00,INITIAL INSPECTION,t,1,WILSON ANGELA,6,,0.2,,,,7.4,,,45,t,t,t,t,t,t,2022-05-09
277237,198926,1028,LA FITNESS MONROEVILLE SPA,4100 WM PENN HIGHWAY,,Monroeville,MONROEVILLE,Allegheny County,PA,15146,,,SPA/HOT TUB (INDOOR),2022-04-12T14:15:00,2022-04-13T15:00:00,INITIAL INSPECTION,f,1,MURPHY COLLEEN,2.5,,0,,,,7.3,,,23,t,t,t,t,t,t,2022-04-14
277238,198967,2307,CLUB JULIAN SPA,101 CORBETT COURT,,Ross Township,PITTSBURGH,Allegheny County,PA,15237,40.547754,-80.019585,SPA/HOT TUB (INDOOR),2022-04-14T09:20:00,2022-04-15T09:40:00,INITIAL INSPECTION,t,1,NOBBS SCOTT,3,,0.6,,,,7.4,,,80,t,t,t,t,t,t,2022-05-26
277239,199042,10577,THE DISTRICT - POOL,1759 Waterfront PLACE,,Pittsburgh,Pittsburgh,Allegheny County,PA,15222,40.451589,-79.987347,POOLS (OUTDOOR),2022-04-18T14:01:00,2022-04-20T15:30:00,INITIAL INSPECTION,t,1,ROBINSON LAWRENCE,3.5,,0,,,,8.0,,,91,t,t,f,t,t,t,2022-07-26
277240,199131,2003,JEWISH COMMUNITY CENTER TRAINING POOL,5738 FORBES AVENUE,,Pittsburgh,PITTSBURGH,Allegheny County,PA,15217,40.437657,-79.9239015,POOLS (INDOOR),2022-04-25T13:15:00,2022-04-26T13:30:00,INITIAL INSPECTION,f,1,MURPHY COLLEEN,2.6,,0,,,,7.4,,,100,t,t,t,t,t,t,2022-04-26
277241,199222,1200,CAMBRIA SUITES PGH @ PPG PAINTS ARENA SPA,1320 CENTRE AVENUE,,Pittsburgh,PITTSBURGH,Allegheny County,PA,15219,40.440087,-79.987977,SPA/HOT TUB (INDOOR),2022-04-28T14:30:00,2022-05-02T15:00:00,INITIAL INSPECTION,t,1,ANDERSON IAN,22.5,,0,,,,7.4,,,44,t,t,f,t,t,t,2022-06-03
277242,199252,2441,MCKEE ELEMENTARY SCHOOL - POOL,1501 OAKDALE ROAD,,North Fayette Township,OAKDALE,Allegheny County,PA,15071,40.415319,-80.193411,POOLS (SCHOOLS),2022-05-02T11:00:00,2022-05-03T11:30:00,INITIAL INSPECTION,t,1,MANOWN MARYANN,4,4,0,0.2,,,7.2,7.2,,60,t,t,f,t,t,t,
277243,199269,4961,HILTON GARDEN INN - POOL,303 PARK MANOR  DRIVE,,Robinson Township,PITTSBURGH,Allegheny County,PA,15205,40.450212,-80.1666855,POOLS (INDOOR),2022-05-02T09:35:00,2022-05-04T10:35:00,INITIAL INSPECTION,t,1,MANOWN MARYANN,3,,0.2,,,,7.4,,,55,t,t,f,t,t,t,2025-02-06
277244,199292,1970,TREES HALL POOL,1970 ALLEQUIPPA STREET,,Pittsburgh,PITTSBURGH,Allegheny County,PA,15260,,,POOLS (SCHOOLS),2022-04-25T12:00:00,2022-05-05T14:00:00,INITIAL INSPECTION,t,1,FREEMAN MICHELE,9.8,9.8,1,1,0,0,7.6,7.6,<50,,t,t,f,t,t,t,2022-07-07
277245,199325,10317,WINCHESTER ASSOCIATION POOL,540 N NEVILLE STREET,,Pittsburgh,Pittsburgh,Allegheny County,PA,15213,40.449078,-79.9484265,POOL (CONDO INDOOR),2022-05-06T15:00:00,2022-05-09T15:10:00,FOLLOW UP INSPECTION,t,2,WILSON ANGELA,,,,,,,,,,,t,t,t,t,t,t,2022-05-09
277246,199330,10000,COURTYARD BY MARRIOTT WEST HOMESTEAD - POOL,401 W WATERFRONT DRIVE,,West Homestead,Homestead,Allegheny County,PA,15120,40.405725,-79.920837,POOLS (INDOOR),2022-05-04T14:30:00,2022-05-09T15:00:00,FOLLOW UP INSPECTION,t,2,ANDERSON IAN,3.8,,0.2,,,,7.4,,,,t,t,t,t,t,t,2022-05-10
277247,199515,1494,BAKERY LIVING 2.0 POOL,6480 LIVING PLACE,,Pittsburgh,PITTSBURGH,Allegheny County,PA,15206,40.456152,-79.9169265,POOLS (INDOOR),2022-05-19T14:10:00,2022-05-20T15:15:00,INITIAL INSPECTION,f,1,ANDERSON IAN,,,,,8,,7.4,,,70,t,t,t,t,t,t,2022-05-24
277248,199567,2020,MOORE POOL/CITY OF PITTSBURGH,1801 PIONEER AVENUE,,Pittsburgh,PITTSBURGH,Allegheny County,PA,15226,40.405545,-80.013933,POOLS (OUTDOOR),2022-05-20T13:30:00,2022-05-23T14:37:00,INITIAL INSPECTION,t,1,CALIGURI JASON,6.5,6.5,0.5,0.5,,,7.0,7.0,,900,t,t,f,t,t,t,2022-08-15
277249,199627,2283,FOX CHAPEL MEWS #1 POOL,300 FOX CHAPEL ROAD,,O'Hara Township,PITTSBURGH,Allegheny County,PA,15238,40.492467,-79.879788,POOL (CONDO INDOOR),2022-05-26T09:00:00,2022-05-27T10:00:00,INITIAL INSPECTION,f,1,FREEMAN MICHELE,1.4,1.4,0.2,0.2,0,0,7.2,7.2,,50,t,t,t,t,t,t,
277250,199630,2234,HOLIDAY INN EXPRESS HARMAR / POOL,10 LANDINGS  DRIVE,,Harmar Township,PITTSBURGH,Allegheny County,PA,15238,40.540293,-79.82703,POOLS (INDOOR),2022-05-25T10:00:00,2022-05-27T12:00:00,INITIAL INSPECTION,t,1,FREEMAN MICHELE,15,15,0.2,0.2,0,0,7.8,7.8,<50,,t,t,t,t,t,t,2024-04-19
277251,199632,5961,HILTON GARDEN INN PITTSBURGH AIRPORT-POOL,9600 UNIVERSITY BOULEVARD,,Moon Township,CORAOPOLIS,Allegheny County,PA,15108,40.50216,-80.2235115,POOLS (INDOOR),2022-05-24T14:35:00,2022-05-27T14:55:00,INITIAL INSPECTION,t,1,MANOWN MARYANN,6.2,,0.6,,,,7.4,,,80,t,t,t,t,t,t,2022-06-01
277252,199698,1493,KENNEDY HIGHLANDS APARTMENT POOL,200 ADAMS  DRIVE,,Kennedy Township,MCKEES ROCKS,Allegheny County,PA,15136,40.465314,-80.0982945,POOLS (OUTDOOR),2022-06-01T14:10:00,2022-06-02T14:45:00,INITIAL INSPECTION,t,1,LAURIA D. ANTHONY,2.4,2.4,2.4,2.4,,,7.2,7.2,,,t,t,t,t,t,t,2022-07-01
277253,199743,2388,EDGETOWN CONDO POOL,205 CORAOPOLIS ROAD,,Kennedy Township,KENNEDY TWP.,Allegheny County,PA,15108,40.499388,-80.1120645,POOL (CONDO OUTDOOR),2022-06-06T14:00:00,2022-06-07T14:40:00,INITIAL INSPECTION,f,1,LAURIA D. ANTHONY,1,1,1,1,,,7.8,7.8,,80,t,t,t,t,t,t,2022-06-23
277254,199748,2212,ETNA POOL, PINE STREET,,Etna,PITTSBURGH,Allegheny County,PA,15223,,,POOLS (OUTDOOR),2022-06-06T11:00:00,2022-06-07T12:30:00,INITIAL INSPECTION,t,1,FREEMAN MICHELE,1.8,1.6,0.2,0.2,0,0,7.2,7.2,<50,450,t,t,f,t,t,t,2022-08-18
277255,199753,7341,HYATT REGENCY PGH INT'L AIRPORT / POOL,1111 AIRPORT  BOULEVARD,Po Box  12420,Findlay Township,Pittsburgh,Allegheny County,PA,15231,40.496346,-80.2599075,POOLS (INDOOR),2022-06-07T09:20:00,2022-06-07T09:45:00,FOLLOW UP INSPECTION,t,2,MANOWN MARYANN,,,,,10,,,,,55,t,t,f,t,t,f,2022-06-08
277256,199785,1240,HIGHLANDS ESTATES CONDO ASSOCIATION POOL,601 GLENGARRY  COURT,,Plum,PLUM BOROUGH,Allegheny County,PA,15239,,,POOL (CONDO OUTDOOR),2022-06-07T09:00:00,2022-06-08T09:45:00,FOLLOW UP INSPECTION,t,4,WILSON ANGELA,5.6,,0.2,,,,7.2,,40,,t,t,f,t,f,t,2022-08-23
277257,199827,372,FOX CHAPEL YACHT CLUB POOL,1366 OLD FREEPORT ROAD,,O'Hara Township,PITTSBURGH,Allegheny County,PA,15238,40.485681,-79.8724755,POOLS (OUTDOOR),2022-06-08T09:30:00,2022-06-09T10:00:00,FOLLOW UP INSPECTION,t,2,FREEMAN MICHELE,1.2,1.2,0.2,0.2,0,0,7.4,7.4,<50,250,t,t,t,t,t,t,2023-08-10
277258,199836,669,DAYS INN - BANKSVILLE POOL,1150 BANKSVILLE ROAD,,Pittsburgh,PITTSBURGH,Allegheny County,PA,15216,40.419198,-80.0302635,POOLS (OUTDOOR),2022-06-08T13:10:00,2022-06-09T13:45:00,INITIAL INSPECTION,t,1,MANOWN MARYANN,5,,0.2,,,,7.0,,<30,,t,t,f,t,f,t,2022-09-01
277259,199840,10638,HAMPTON INN & SUITES / WATERFRONT POOL,301 W WATERFRONT DRIVE,,West Homestead,Homestead,Allegheny County,PA,15120,40.406958,-79.920153,POOLS (INDOOR),2022-06-09T13:00:00,2022-06-10T13:15:00,FOLLOW UP INSPECTION,t,2,ANDERSON IAN,,,,,,,,,,,t,t,t,t,t,t,2022-08-22
277260,199849,7206,CALAIS VILLAGE CONDO POOL,553 SLOOP ROAD,,McCandless,Pittsburgh,Allegheny County,PA,15237,40.565682,-80.054631,POOL (CONDO OUTDOOR),2022-06-03T13:00:00,2022-06-10T13:45:00,FOLLOW UP INSPECTION,t,3,NOBBS SCOTT,2.8,,0,,,,7.4,,45,70,t,t,f,t,t,t,2022-06-22
277261,199888,2113,GLENWOOD  CONDO POOL,4661 OLD WM PENN HIGHWAY,,Monroeville,MONROEVILLE,Allegheny County,PA,15146,,,POOL (CONDO OUTDOOR),2022-06-13T08:30:00,2022-06-14T09:15:00,INITIAL INSPECTION,f,1,MURPHY COLLEEN,4.8,,0.2,,,,7.6,,,130,t,t,t,t,t,t,2022-06-15
277262,199889,446,RESIDENCE AT THE WATERFRONT POOL,611 E WATERFRONT DRIVE,,Munhall,MUNHALL,Allegheny County,PA,15120,40.414284,-79.9052985,POOLS (OUTDOOR),2022-06-10T13:50:00,2022-06-14T14:40:00,FOLLOW UP INSPECTION,t,2,ANDERSON IAN,2,,0,,,,7.8,,,130,t,t,f,t,t,t,2022-06-30
277263,199890,2194,BEACON HILL CONDOS - POOL,745 BEACON HILL DRIVE,,Wilkinsburg,WILKINSBURG,Allegheny County,PA,15221,,,POOL (CONDO OUTDOOR),2022-06-13T09:45:00,2022-06-14T10:30:00,INITIAL INSPECTION,f,1,MURPHY COLLEEN,4,,0,,,,7.4,,,90,t,t,t,t,t,t,2022-06-15
277264,199920,2233,HIGHLAND WOODS POOL,120 RIVERMONT COURT,,Harmar Township,CHESWICK,Allegheny County,PA,15024,40.565574,-79.8195375,POOL (CONDO OUTDOOR),2022-06-13T14:00:00,2022-06-15T15:00:00,INITIAL INSPECTION,t,1,FREEMAN MICHELE,7.6,7.6,0,0,0,0,7.4,7.4,,30,t,f,f,t,t,f,2024-07-24
277265,199943,6941,HAMPTON INN / WEST MIFFLIN POOL,1550 LEBANON CHURCH  ROAD,,West Mifflin,WEST MIFFLIN,Allegheny County,PA,15236,40.346505,-79.9540155,POOLS (OUTDOOR),2022-06-15T13:30:00,2022-06-16T15:00:00,INITIAL INSPECTION,f,1,CONLEY FAON,4,4,0,0,,,7.2,7.2,,50,t,t,t,t,t,t,2022-06-20
277266,199948,4184,HYATT HOUSE / SHADYSIDE POOL,5335 BAUM  BOULEVARD,,Pittsburgh,PITTSBURGH,Allegheny County,PA,15224,40.456908,-79.9391025,POOLS (INDOOR),2022-06-13T11:00:00,2022-06-16T11:47:00,INITIAL INSPECTION,f,1,TIJANI ISSA,3,3,0.2,0.2,,,7.4,7.3,,55,t,t,t,t,t,t,2022-06-16
277267,199954,5481,EASTSIDE BOND APARTMENT POOL,6105 SPIRIT STREET,,Pittsburgh,PITTSBURGH,Allegheny County,PA,15206,40.460067,-79.9232535,POOLS (OUTDOOR),2022-06-14T14:00:00,2022-06-16T14:50:00,INITIAL INSPECTION,t,1,ANDERSON IAN,5,,0,,,,7.4,,,90,t,t,f,t,t,t,2022-07-25
277268,199958,1241,PARKVIEW ESTATES,251 ESTATES DRIVE,,Richland Township,GIBSONIA,Allegheny County,PA,15044,40.659912,-79.926984,POOL (CONDO OUTDOOR),2022-06-14T09:00:00,2022-06-16T09:30:00,INITIAL INSPECTION,t,1,NOBBS SCOTT,7.2,7.2,0,0,,,7.4,7.4,<30,45,t,t,f,t,t,t,2022-06-28
277269,200030,2183,WHITE OAK FARMS POOL,502 RIVERVIEW DRIVE,,White Oak,WHITE OAK,Allegheny County,PA,15131,40.322637,-79.798059,POOLS (OUTDOOR),2022-06-16T13:35:00,2022-06-20T14:25:00,FOLLOW UP INSPECTION,t,2,TIJANI ISSA,6.2,6.2,0.2,0.2,,,7.2,7.2,40,150,t,t,f,t,t,t,2022-09-02
277270,200032,2253,NORTH PARK SWIMMING POOL, S RIDGE DRIVE,,McCandless,ALLISON PARK,Allegheny County,PA,15101,,,POOLS (OUTDOOR),2022-06-17T14:10:00,2022-06-20T14:45:00,INITIAL INSPECTION,t,1,NOBBS SCOTT,1,1,0,0,,,7.4,7.4,<30,4800,t,t,f,t,t,t,2022-08-10
277271,200033,274,NORTH PARK WADING POOL, S RIDGE DRIVE,,McCandless,ALLISON PARK,Allegheny County,PA,15101,,,WADING POOL SYSTEM,2022-06-17T14:40:00,2022-06-20T15:20:00,INITIAL INSPECTION,t,1,NOBBS SCOTT,1.2,,0.2,,,,7.4,,,350,t,t,f,t,t,t,2022-08-10
277272,195878,2387,STANFORD COURT POOL,1200 STANFORD COURT,,Kennedy Township,KENNEDY TWP.,Allegheny County,PA,15108,40.492278,-80.110395,POOL (CONDO OUTDOOR),2021-10-13T10:00:00,2021-10-13T10:13:00,INITIAL INSPECTION,f,1,LAURIA D. ANTHONY,,,,,,,,,,,t,t,t,t,t,t,2021-10-13
277273,195932,1473,SPRINGHILL SUITES BAKERY SQUARE POOL,134 BAKERY SQUARE  BOULEVARD,,Pittsburgh,PITTSBURGH,Allegheny County,PA,15206,40.456827,-79.9149285,POOLS (INDOOR),2021-10-12T15:00:00,2021-10-15T15:30:00,INITIAL INSPECTION,f,1,ANDERSON IAN,,,,,,,,,,,t,t,t,t,t,t,2021-10-21
277274,195938,2357,CHARTIERS VALLEY HIGH SCHOOL POOL,50 THOMS RUN  ROAD,,Collier Township,PRESTO,Allegheny County,PA,15017,40.378779,-80.102538,POOLS (SCHOOLS),2021-10-14T10:00:00,2021-10-15T10:30:00,INITIAL INSPECTION,t,1,WILSON ANGELA,2,1.8,0.2,0.2,,,7.4,7.4,,1100,t,t,f,t,t,t,2021-11-12
277275,195969,3843,GOLDFISH SWIM SCHOOL,160 LAKE DRIVE,,Pine Township,WEXFORD,Allegheny County,PA,15090,40.616406,-80.0526735,POOLS (INDOOR),2021-10-14T13:30:00,2021-10-19T14:00:00,INITIAL INSPECTION,t,1,NOBBS SCOTT,2,,0.2,,,,7.4,,,293,t,t,f,t,t,t,2021-10-27
277276,195993,683,DONALDSON ELEMENTARY SCHOOL POOL,600 DONALDSON ROAD,,North Fayette Township,OAKDALE,Allegheny County,PA,15051,,,POOLS (SCHOOLS),2021-10-18T09:30:00,2021-10-19T09:55:00,INITIAL INSPECTION,f,1,MANOWN MARYANN,3,,0.2,,,,7.4,,,120,t,t,t,t,t,t,2021-10-25
277277,195996,2428,WEST ALLEGHENY SR HIGH SCHOOL - POOL,205 WEST ALLEGHENY ROAD,,North Fayette Township,IMPERIAL,Allegheny County,PA,15126,40.448799,-80.239788,POOLS (SCHOOLS),2021-10-18T10:40:00,2021-10-19T11:50:00,INITIAL INSPECTION,t,1,MANOWN MARYANN,4.5,4.5,0,0,,,7.2,7.2,,621,t,t,f,t,t,t,2021-10-26
277278,195998,1201,MOON HIGH SCHOOL POOL,8353 UNIVERSITY BOULEVARD,,Moon Township,MOON TOWNSHIP,Allegheny County,PA,15108,40.510314,-80.220006,POOLS (SCHOOLS),2021-10-18T13:50:00,2021-10-19T14:45:00,INITIAL INSPECTION,t,1,MANOWN MARYANN,4.5,4,0,0,,,7.4,7.4,,725,t,t,t,t,t,t,2021-10-25
277279,196018,1098,MCKNIGHT HOTEL - HOT TUB,4575 MCKNIGHT ROAD,,Ross Township,PITTSBURGH,Allegheny County,PA,15237,40.504518,-80.0103645,SPA/HOT TUB (INDOOR),2021-10-19T13:55:00,2021-10-20T14:10:00,FOLLOW UP INSPECTION,t,2,NOBBS SCOTT,,,0.4,,,,,,,40,t,t,f,t,t,t,2021-10-26
277280,196041,2366,KEYSTONE OAKS HIGH SCHOOL POOL,1000 KELTON AVENUE,Building & Grounds Dept,Mount Lebanon,PITTSBURGH,Allegheny County,PA,15216,40.387284,-80.0305245,POOLS (SCHOOLS),2021-10-20T10:00:00,2021-10-21T10:40:00,INITIAL INSPECTION,t,1,WILSON ANGELA,3.2,3.2,0.2,0.2,,,7.4,7.4,,460,t,t,t,t,t,t,2022-01-31
277281,196160,5142,COMFORT INN & SUITES POOL,1100 BANKSVILLE ROAD,,Pittsburgh,PITTSBURGH,Allegheny County,PA,15216,40.419909,-80.030268,POOLS (INDOOR),2021-10-20T10:10:00,2021-10-26T10:40:00,FOLLOW UP INSPECTION,t,2,MANOWN MARYANN,6.5,,0.5,,,,7.2,,,,t,t,f,t,f,t,2021-11-24
277282,196234,2117,STEEL VALLEY MIDDLE / SENIOR HIGH  POOL,3113 MAIN STREET,,Munhall,HOMESTEAD,Allegheny County,PA,15120,40.388445,-79.8985485,POOLS (SCHOOLS),2021-10-29T10:15:00,2021-10-29T10:25:00,FOLLOW UP INSPECTION,t,3,WOLFE CURRIER,,,,,,,7.8,,,500,t,t,t,t,t,t,2021-11-01
277283,200069,56,WINDWOOD PARKS / WATER SLIDE POOL,903 LAKE ROAD,,Marshall Township,BRADFORD WOODS,Allegheny County,PA,15015,40.628232,-80.09001,WATER SLIDE POOLS,2022-06-21T15:00:00,2022-06-22T15:45:00,INITIAL INSPECTION,t,1,NOBBS SCOTT,1.6,,0.2,,,,7.6,,,,t,t,f,t,t,t,2022-07-07
277284,200104,7574,VIRGINIA HILLS POOL,200 FALLS CHURCH ROAD,,North Fayette Township,Imperial,Allegheny County,PA,15126,40.443462,-80.2342215,POOLS (OUTDOOR),2022-06-17T11:30:00,2022-06-23T12:10:00,FOLLOW UP INSPECTION,t,2,MANOWN MARYANN,3,,0,,,,7.6,,0,,t,t,f,t,t,t,
277285,200142,350,VENTANA HILLS POOL,1350 VENTANA DRIVE,,ROBINSON TOWNSHIP,CORAOPOLIS,Allegheny County,PA,15108,40.467483,-80.150058,POOLS (OUTDOOR),2022-06-21T15:45:00,2022-06-24T16:30:00,FOLLOW UP INSPECTION,t,8,MANOWN MARYANN,4,,0,,,,7.4,,0,200,t,t,f,t,t,t,2023-09-14
277286,200167,2444,CHESTNUT RIDGE APARTMENT POOL,3200 CHESTNUT RIDGE DRIVE,,ROBINSON TOWNSHIP,PITTSBURGH,Allegheny County,PA,15205,40.435713,-80.155962,POOLS (OUTDOOR),2022-06-23T15:30:00,2022-06-27T16:15:00,FOLLOW UP INSPECTION,t,2,MANOWN MARYANN,4,,0,,,,7.6,,50,65,t,t,f,t,t,t,2022-08-22
277287,200168,2116,BOYCE PARK WAVE POOL,675 OLD FRANKSTOWN ROAD,,Monroeville,MONROEVILLE,Allegheny County,PA,15146,40.460472,-79.7528205,POOLS (OUTDOOR),2022-06-24T12:00:00,2022-06-27T13:00:00,INITIAL INSPECTION,f,1,MURPHY COLLEEN,2,,0,,,,7.4,,,1200,t,t,t,t,t,t,2022-06-28
277288,200181,2276,COMMUNITY SWIM CLUB POOL - WADING POOL,100 AQUA DRIVE,,O'Hara Township,PGH,Allegheny County,PA,15238,40.514895,-79.858314,WADING POOL SYSTEM,2022-06-23T10:00:00,2022-06-27T11:00:00,INITIAL INSPECTION,t,1,FREEMAN MICHELE,1.6,,0.2,,0,0,7.6,,<50,55,t,t,f,t,t,t,2024-07-25
277289,200182,1972,AMMON POOL/CITY OF PITTSBURGH,2217 BEDFORD AVENUE,,Pittsburgh,PITTSBURGH,Allegheny County,PA,15219,40.448718,-79.9778835,POOLS (OUTDOOR),2022-06-27T11:00:00,2022-06-27T13:00:00,INITIAL INSPECTION,t,1,FREEMAN MICHELE,0.4,0.4,0,0,0,0,7.6,7.6,<50,120,t,t,t,t,t,f,2023-07-19
277290,200195,2486,CLAIRTON MUNICIPAL POOL,435 FREEMONT STREET,,Clairton,CLAIRTON,Allegheny County,PA,15025,40.302486,-79.8945435,POOLS (OUTDOOR),2022-06-23T13:00:00,2022-06-28T14:00:00,INITIAL INSPECTION,t,1,CONLEY FAON,2,2,0,0,,,7.2,7.0,,1100,t,t,t,t,t,t,2022-07-11
277291,200196,2507,CLAIRTON MUNICIPAL POOL - WADING,435 FREEMONT STREET,,Clairton,CLAIRTON,Allegheny County,PA,15025,40.302486,-79.8945435,WADING POOL SYSTEM,2022-06-24T12:00:00,2022-06-28T13:00:00,INITIAL INSPECTION,t,1,CONLEY FAON,0,0,0,0,,,10,10,,110,t,t,f,t,f,f,2022-07-11
277292,200209,2356,THE CLUB AT NEVILLEWOOD - POOL,1000 NEVILLEWOOD DRIVE,,Collier Township,PRESTO,Allegheny County,PA,15142,40.385808,-80.1259065,POOLS (OUTDOOR),2022-06-28T13:20:00,2022-06-29T13:53:00,INITIAL INSPECTION,t,1,WOLFE CURRIER,2.8,,0,,,,7.2,,<30,180,t,t,t,t,t,t,2022-07-01
277293,200218,2297,VALLEY BROOK SWIM CLUB MAIN POOL,1 CALLENDAR  ROAD,,Ross Township,PITTSBURGH,Allegheny County,PA,15237,,,POOLS (OUTDOOR),2022-06-28T12:30:00,2022-06-29T13:00:00,INITIAL INSPECTION,t,1,NOBBS SCOTT,3.4,3.8,0.2,0,,,7.4,7.4,<30,1600,t,t,t,t,t,t,2022-07-07
277294,200219,1972,AMMON POOL/CITY OF PITTSBURGH,2217 BEDFORD AVENUE,,Pittsburgh,PITTSBURGH,Allegheny County,PA,15219,40.448718,-79.9778835,POOLS (OUTDOOR),2022-06-28T09:00:00,2022-06-29T10:00:00,FOLLOW UP INSPECTION,t,2,FREEMAN MICHELE,1.4,1.4,0,0,0,0,7.6,7.4,<50,,t,t,t,t,t,f,2023-07-19
277295,200237,2223,HUNTER'S POINT CONDO POOL,2551 C PHEASANT RUN DRIVE,,Franklin Park,WEXFORD,Allegheny County,PA,15090,40.604922,-80.0885925,POOL (CONDO OUTDOOR),2022-06-28T14:30:00,2022-06-30T15:20:00,INITIAL INSPECTION,t,1,NOBBS SCOTT,4.8,,0,,,,7.4,,<30,110,t,t,f,t,t,t,2022-08-18
277296,200240,2255,INGOMAR NORTH SWIM CLUB POOL,456 OLIVE STREET,,McCandless,PITTSBURGH,Allegheny County,PA,15237,,,POOLS (OUTDOOR),2022-06-29T14:30:00,2022-06-30T15:15:00,INITIAL INSPECTION,f,1,NOBBS SCOTT,2.6,1.6,0,0,,,7.4,7.2,<30,330,t,t,t,t,t,t,2022-07-01
277297,200245,2180,WHITE OAK BORO / HERITAGE HILL POOL, VICTORIA  DRIVE,,White Oak,WHITE OAK,Allegheny County,PA,15131,,,POOLS (OUTDOOR),2022-06-30T11:30:00,2022-07-01T12:30:00,INITIAL INSPECTION,t,1,TIJANI ISSA,2,2,0,0,,,7.6,7.4,30,834.4,t,t,t,t,t,t,2022-07-01
277298,200269,2507,CLAIRTON MUNICIPAL POOL - WADING,435 FREEMONT STREET,,Clairton,CLAIRTON,Allegheny County,PA,15025,40.302486,-79.8945435,WADING POOL SYSTEM,2022-06-30T14:00:00,2022-07-01T14:30:00,FOLLOW UP INSPECTION,t,2,CONLEY FAON,4.2,4.2,0,0,,,7.4,7.4,,50,t,t,f,t,f,f,2022-07-11
277299,200274,5426,CRAFTON BOROUGH SPLASH POOL,117 W STEUBENVILLE  STREET,,Crafton,PITTSBURGH,Allegheny County,PA,15205,,,WADING POOL SYSTEM,2022-06-27T15:30:00,2022-07-01T15:50:00,FOLLOW UP INSPECTION,t,2,MANOWN MARYANN,3.5,,0.2,,,,7.6,,0,80,t,t,f,t,t,t,2022-10-25
277300,200298,2047,WESTWOOD POOL/CITY OF PITTSBURGH,100 GUYLAND STREET,,Pittsburgh,PITTSBURGH,Allegheny County,PA,15205,40.430817,-80.049771,POOLS (OUTDOOR),2022-07-05T15:20:00,2022-07-06T16:00:00,FOLLOW UP INSPECTION,t,2,LAURIA D. ANTHONY,3,3,0,0,,,7.5,7.6,,500,t,t,t,t,f,t,2022-07-18
277301,200315,1971,TREES HALL POOL,1971 ALLEQUIPPA STREET,,Pittsburgh,PITTSBURGH,Allegheny County,PA,15260,,,POOLS (SCHOOLS),2022-07-01T12:00:00,2022-07-06T14:00:00,FOLLOW UP INSPECTION,t,2,FREEMAN MICHELE,3,2.6,0.2,0.2,0,0,7.6,7.6,<50,510,t,t,f,t,t,t,2022-07-07
277302,200318,2065,YOUGHIOGHENY COUNTRY CLUB POOL,1901 GREENOCK / BUENA VISTA ROAD,,Elizabeth Township,MC KEESPORT,Allegheny County,PA,15135,40.300029,-79.814709,POOLS (OUTDOOR),2022-07-06T12:00:00,2022-07-07T12:40:00,FOLLOW UP INSPECTION,t,4,TIJANI ISSA,3,3,0,0,,,7.6,7.6,,230,t,t,f,t,t,t,2022-08-12
277303,200331,2088,HAYMAKER SWIM & RACQUET CLUB POOL,106 PENN LEAR DRIVE,,Monroeville,MONROEVILLE,Allegheny County,PA,15146,40.400307,-79.7604705,POOLS (OUTDOOR),2022-07-06T15:15:00,2022-07-07T16:00:00,INITIAL INSPECTION,f,1,MURPHY COLLEEN,2.5,,0,,,,7.5,,,350,t,t,t,t,t,t,2022-07-07
277304,200338,2023,TRIMONT RESIDENTIAL CONDOS POOL,1 TRIMONT LANE,,Pittsburgh,PITTSBURGH,Allegheny County,PA,15211,40.438224,-80.0201835,POOL (CONDO OUTDOOR),2022-07-06T13:30:00,2022-07-07T14:30:00,FOLLOW UP INSPECTION,t,3,MANOWN MARYANN,1.5,,0,,,,7.2,,50,42,t,t,f,t,f,t,2022-08-29
277305,200348,2201,BELLEVUE MEMORIAL POOL,320 BELLEVUE ROAD,,Ross Township,PITTSBURGH,Allegheny County,PA,15202,40.504257,-80.0411355,POOLS (OUTDOOR),2022-07-07T13:15:00,2022-07-08T13:35:00,INITIAL INSPECTION,t,1,NOBBS SCOTT,1.8,1.8,0,0,,,7.4,7.4,<30,1210,t,t,t,t,t,t,2022-07-14
277306,200352,1227,COBBLESTONE CONDOMINIUM/ POOL,175 COBBLESTONE DRIVE,,Ohio Township,PITTSBURGH,Allegheny County,PA,15237,40.539132,-80.082693,POOL (CONDO OUTDOOR),2022-07-07T14:10:00,2022-07-08T14:20:00,FOLLOW UP INSPECTION,t,4,NOBBS SCOTT,,,,,,,,,,,t,t,f,t,t,t,2022-07-25
277307,200358,9697,HAMPSHIRE HOUSE APT POOL,195 MT LEBANON BOULEVARD,,Mount Lebanon,Pittsburgh,Allegheny County,PA,15228,40.368321,-80.0388225,POOLS (OUTDOOR),2022-07-07T14:00:00,2022-07-08T14:35:00,INITIAL INSPECTION,t,1,WOLFE CURRIER,2.8,,0,,,,7.0,,<30,120,t,t,t,t,f,t,2023-08-25
277308,200361,358,EDGEWOOD CLUB WADING POOL,1 PENNWOOD AVENUE,,Edgewood,PITTSBURGH,Allegheny County,PA,15218,40.432239,-79.885233,WADING POOL SYSTEM,2022-07-07T12:20:00,2022-07-08T12:40:00,INITIAL INSPECTION,t,1,ANDERSON IAN,2,,0.2,,,,7.6,,,55,t,t,f,t,t,t,2022-07-14
277309,200384,5983,NEVILLESIDE  HOA POOL ,1900 CAMBRIDGE  DRIVE,,Collier Township,PRESTO,Allegheny County,PA,15142,40.38822,-80.1363375,POOL (CONDO OUTDOOR),2022-07-08T14:45:00,2022-07-11T15:05:00,INITIAL INSPECTION,t,1,WOLFE CURRIER,2.6,,0,,,,7.4,,<30,,t,t,f,t,t,t,2022-08-17
277310,200385,8137,CHERRY HILL HOA POOL,2100 CHERRY HILL DRIVE,,Collier Township,Presto,Allegheny County,PA,15142,,,POOL (CONDO OUTDOOR),2022-07-08T14:17:00,2022-07-11T14:37:00,FOLLOW UP INSPECTION,t,5,WOLFE CURRIER,5.8,,0,,,,7.4,,48,70,t,t,f,t,t,t,2022-08-10
277311,200407,2196,SEWICKLEY HEIGHTS MANOR HOMES POOL,101 GREENWOOD DRIVE,,Aleppo Township,SEWICKLEY,Allegheny County,PA,15143,40.53942,-80.1527445,POOL (CONDO OUTDOOR),2022-07-11T13:20:00,2022-07-12T14:00:00,FOLLOW UP INSPECTION,t,2,LAURIA D. ANTHONY,5,5,0,0,,,7.6,7.6,,450,t,t,f,t,t,t,2022-07-18
277312,200421,9737,CITY VIEW APARTMENTS POOL,1420 CENTRE AVENUE,,Pittsburgh,Pittsburgh,Allegheny County,PA,15219,40.44042,-79.986429,POOLS (OUTDOOR),2022-07-12T12:05:00,2022-07-12T12:40:00,INITIAL INSPECTION,t,1,ANDERSON IAN,4.4,,0,,,,7.4,,,225,t,t,f,t,t,t,2022-07-14
277313,200424,1985,HIGHLAND PARK POOL/CITY OF PITTSBURGH,151 LAKE DRIVE,,Pittsburgh,PITTSBURGH,Allegheny County,PA,15206,,,POOLS (OUTDOOR),2022-07-11T10:30:00,2022-07-12T12:30:00,INITIAL INSPECTION,t,1,FREEMAN MICHELE,0.8,0.4,0.2,0.2,0,0,7.4,7.6,<50,1600,t,t,t,t,t,f,2022-07-15
277314,200444,1317,VILLAS OF WOODCREEK / POOL,6075 CALEDONIA  COURT,,South Fayette Township,BRIDGEVILLE,Allegheny County,PA,15017,40.34925,-80.139168,POOL (CONDO OUTDOOR),2022-07-12T14:30:00,2022-07-13T14:55:00,INITIAL INSPECTION,t,1,WOLFE CURRIER,2.8,,0,,,,7.4,,<30,85,t,t,f,t,t,t,2022-08-22
277315,200446,1163,BERKSHIRES CLUBHOUSE / POOL,6000 MIDDLEFIELD DRIVE,,South Fayette Township,MCDONALD,Allegheny County,PA,15057,40.368474,-80.1773595,POOL (CONDO OUTDOOR),2022-07-12T13:10:00,2022-07-13T13:35:00,INITIAL INSPECTION,t,1,WOLFE CURRIER,5.6,,0,,,,7.2,,<30,130,t,t,f,t,t,t,2023-08-30
277316,200447,2298,CHARLEMAGNE II POOL,4000 CHARLEMAGNE CIRCLE,,Ross Township,PITTSBURGH,Allegheny County,PA,15237,40.544298,-80.0171145,POOL (CONDO OUTDOOR),2022-07-08T12:30:00,2022-07-13T13:30:00,INITIAL INSPECTION,t,1,NOBBS SCOTT,2.2,,0,,,,7.0,,,55,t,t,f,t,f,t,2023-07-11
277317,200489,2470,HIDDEN VALLEY POOL,2774 BINGHAM DRIVE,,Upper St Clair Township,PITTSBURGH,Allegheny County,PA,15241,40.31262,-80.1079875,POOL (CONDO OUTDOOR),2022-07-13T15:20:00,2022-07-14T15:35:00,INITIAL INSPECTION,t,1,WOLFE CURRIER,1.4,,0,,,,7.4,,<30,,t,t,f,t,t,t,2023-06-21
277318,200492,2475,WOODLAND HILLS CLUB POOL,2799 BINGHAM DRIVE,,Upper St Clair Township,PITTSBURGH,Allegheny County,PA,15241,40.312791,-80.1064665,POOLS (OUTDOOR),2022-07-13T14:20:00,2022-07-14T14:55:00,INITIAL INSPECTION,t,1,WOLFE CURRIER,1,1.2,0,0,,,7.4,7.4,<30,550,t,t,t,t,t,t,2022-07-18
277319,200493,2488,WOODLAND HILLS CLUB WADING POOL,2799 BINGHAM DRIVE,,Upper St Clair Township,PITTSBURGH,Allegheny County,PA,15241,40.312791,-80.1064665,WADING POOL SYSTEM,2022-07-13T15:00:00,2022-07-14T15:05:00,INITIAL INSPECTION,t,1,WOLFE CURRIER,3,,0,,,,7.4,,<30,,t,t,t,t,t,t,
277320,200494,780,BIRNAM WOODS APARTMENTS POOL,900 MACBETH DRIVE,,Monroeville,MONROEVILLE,Allegheny County,PA,15146,40.426416,-79.758522,POOLS (OUTDOOR),2022-07-13T14:15:00,2022-07-14T14:30:00,INITIAL INSPECTION,f,1,MURPHY COLLEEN,,,,,,,,,,,t,t,t,t,t,t,2022-07-13
277321,200495,2315,MEWS POOL,710 BROWNS LANE,,Ross Township,PITTSBURGH,Allegheny County,PA,15237,40.5459,-80.020944,POOL (CONDO OUTDOOR),2022-07-13T14:30:00,2022-07-14T15:30:00,INITIAL INSPECTION,f,1,NOBBS SCOTT,1,1,0,0,,,7.2,7.2,,275,t,t,t,t,t,t,2022-07-14
277322,200504,850,SUMMERSET COMMUNITY POOL,1425 PARKVIEW BOULEVARD,,Pittsburgh,PITTSBURGH,Allegheny County,PA,15217,40.419774,-79.91613,POOL (CONDO OUTDOOR),2022-07-08T03:15:00,2022-07-14T03:45:00,INITIAL INSPECTION,f,1,MURPHY COLLEEN,2.2,,0,,,,7.2,,,200,t,t,t,t,t,t,2022-07-15
277323,200530,750,GREENBRIER VILLAGE APARTMENTS POOL,1701 GREENVALLEY DRIVE,,Scott Township,PITTSBURGH,Allegheny County,PA,15220,40.398012,-80.061876,POOLS (OUTDOOR),2022-07-14T13:20:00,2022-07-15T13:45:00,INITIAL INSPECTION,t,1,WOLFE CURRIER,3.6,,0,,,,7.4,,,65,t,t,f,t,t,t,2023-08-25
277324,200532,2448,MANORVIEW APTS POOL,101 MANORVIEW ROAD,,Scott Township,PITTSBURGH,Allegheny County,PA,15220,40.394493,-80.0650395,POOLS (OUTDOOR),2022-07-14T14:05:00,2022-07-15T14:25:00,INITIAL INSPECTION,t,1,WOLFE CURRIER,3.4,,0,,,,7.4,,<30,115,t,t,f,t,t,t,2022-08-23
277325,200540,555,WALNUT CROSSING POOL,4175 IVANHOE DRIVE,,Monroeville,MONROEVILLE,Allegheny County,PA,15146,40.435893,-79.763526,POOLS (OUTDOOR),2022-07-13T15:00:00,2022-07-15T15:45:00,INITIAL INSPECTION,f,1,MURPHY COLLEEN,2,,0,,,,7.5,,,190,t,t,t,t,t,t,2022-07-15
277326,200573,9717,KAUFMANNS GRAND ON 5TH POOL,434 5TH AVENUE,,Pittsburgh,Pittsburgh,Allegheny County,PA,15219,40.439691,-79.9980705,POOLS (OUTDOOR),2022-07-12T11:00:00,2022-07-18T11:45:00,INITIAL INSPECTION,t,1,MURPHY COLLEEN,2,,0,,,,7.3,,,20,t,t,f,t,t,t,2022-07-18
277327,200585,2293,RICHLAND SWIM CLUB POOL,4104 DICKEY ROAD,,Richland Township,GIBSONIA,Allegheny County,PA,15044,40.642812,-79.9457715,POOLS (OUTDOOR),2022-07-15T13:00:00,2022-07-18T13:15:00,INITIAL INSPECTION,f,1,NOBBS SCOTT,1.8,1.8,0,0,,,7.6,7.8,<30,775,t,t,t,t,t,t,2022-07-21
277328,200589,74,THORNBERRY CONDO ASSOC,744 WINDVUE DRIVE,,ROBINSON TOWNSHIP,ROBINSON,Allegheny County,PA,15205,40.429872,-80.0941635,POOL (CONDO OUTDOOR),2022-07-15T14:45:00,2022-07-18T15:30:00,INITIAL INSPECTION,t,1,MANOWN MARYANN,,,,,3,3,7.2,7.2,,120,t,t,t,t,t,t,2022-07-21
277329,200598,1301,SHERWOOD EVENT CENTER POOL,400 SHERWOOD ROAD,,Wilkinsburg,WILKINSBURG,Allegheny County,PA,15221,40.435227,-79.8645375,POOLS (OUTDOOR),2022-07-18T14:00:00,2022-07-19T14:45:00,INITIAL INSPECTION,f,1,MURPHY COLLEEN,3.8,,0,,,,7.6,,,450,t,t,t,t,t,t,2022-08-08
277330,200599,2069,BRYN MAWR APTS POOL,100 BRYN MAWR COURT,,Forest Hills,FOREST HILLS,Allegheny County,PA,15221,40.434669,-79.8655185,POOLS (OUTDOOR),2022-07-18T14:45:00,2022-07-19T15:15:00,INITIAL INSPECTION,f,1,MURPHY COLLEEN,3.8,,0,,,,7.4,,,60,t,t,t,t,t,t,2022-07-18
277331,200621,2197,RIVER OAKS COMMUITY CONDO POOL,1 OAKHURST  CIRCLE,,Aspinwall,ASPINWALL,Allegheny County,PA,15215,40.497651,-79.9058475,POOLS (OUTDOOR),2022-07-13T13:00:00,2022-07-19T15:00:00,INITIAL INSPECTION,t,1,FREEMAN MICHELE,2.4,2.2,0.2,0.2,0,0,7.6,7.6,<50,600,t,t,f,t,t,t,2024-08-23
277332,200632,666,HIDDEN RIDGE CONDOMINIUMS,1001 HIDDEN RIDGE COURT,,South Park Township,SOUTH PARK,Allegheny County,PA,15129,40.291299,-79.9897905,POOL (CONDO OUTDOOR),2022-07-18T11:30:00,2022-07-20T12:30:00,INITIAL INSPECTION,f,1,CONLEY FAON,3.6,3.6,0,0,0,0,7.8,7.8,,50,t,t,t,t,t,t,2022-07-27
277333,200655,6002,SUMMER SEAT HOA POOL,105 GATEWAY DRIVE,,Ohio Township,PITTSBURGH,Allegheny County,PA,15237,40.537017,-80.095419,POOL (CONDO OUTDOOR),2022-07-20T09:00:00,2022-07-21T09:25:00,INITIAL INSPECTION,f,1,NOBBS SCOTT,2.2,,0,,,,7.4,,<30,230,t,t,t,t,t,t,2022-08-03
277334,200660,8897,SEWICKLEY RIDGE POOL,148 FREEDOM  LANE,,OHIO,Sewickley,Allegheny County,PA,15143,40.538754,-80.1167985,POOL (CONDO OUTDOOR),2022-07-20T10:05:00,2022-07-21T10:25:00,INITIAL INSPECTION,f,1,NOBBS SCOTT,1.8,,0.2,,,,7.4,,<30,195,t,t,t,t,t,t,2022-07-25
277335,200661,8898,SEWICKLEY RIDGE SPA,148 FREEDOM LANE,,Ohio Township,Sewickley,Allegheny County,PA,15143,40.538754,-80.1167985,SPA/HOT TUB (OUTDOOR),2022-07-20T10:25:00,2022-07-21T10:35:00,INITIAL INSPECTION,f,1,NOBBS SCOTT,6.4,,0.2,,,,7.4,,,55,t,t,t,t,t,t,2022-07-25
277336,200665,414,OAK HILL APT POOL,280 BURROWS STREET,,Pittsburgh,PITTSBURGH,Allegheny County,PA,15213,40.439682,-79.970085,POOLS (OUTDOOR),2022-07-20T10:10:00,2022-07-21T10:45:00,INITIAL INSPECTION,t,1,WILSON ANGELA,1.6,,0.2,,,,7.4,,30,80,t,t,f,t,t,t,2022-08-05
277337,200674,1010,STAUNTON HEIGHTS CONDO POOL,1501 STAUNTON DRIVE,,Moon Township,CORAOPOLIS,Allegheny County,PA,15108,40.544208,-80.203383,POOL (CONDO OUTDOOR),2022-07-19T09:20:00,2022-07-21T10:05:00,FOLLOW UP INSPECTION,t,3,MANOWN MARYANN,3,,0,,,,7.6,,<30,55,t,t,f,t,t,t,2022-07-22
277338,200686,5481,EASTSIDE BOND APARTMENT POOL,6105 SPIRIT STREET,,Pittsburgh,PITTSBURGH,Allegheny County,PA,15206,40.460067,-79.9232535,POOLS (OUTDOOR),2022-07-21T14:45:00,2022-07-22T15:15:00,FOLLOW UP INSPECTION,t,2,ANDERSON IAN,,,,,,,,,,,t,t,f,t,t,t,2022-07-25
277339,200688,2452,BOWER HILL SWIM CLUB - WADING POOL,1600 BOWER HILL ROAD,,Scott Township,PITTSBURGH,Allegheny County,PA,15243,40.372101,-80.0806995,WADING POOL SYSTEM,2022-07-21T14:50:00,2022-07-22T13:00:00,INITIAL INSPECTION,t,1,WOLFE CURRIER,2.4,,0,,,,7.6,,<30,90,t,t,f,t,t,t,2022-08-12
277340,200690,2412,TWIN OAKS MANOR CONDO POOL,8000 SANLIN DRIVE,,Moon Township,CORAOPOLIS,Allegheny County,PA,15108,40.509234,-80.208,POOL (CONDO OUTDOOR),2022-07-19T13:20:00,2022-07-22T14:15:00,FOLLOW UP INSPECTION,t,3,MANOWN MARYANN,5,,0,,,,7.2,,<30,140,t,t,f,t,t,t,2022-07-22
277341,200695,2316,CHATEAU PERRY POOL,951 PERRY HIGHWAY,,Ross Township,PITTSBURGH,Allegheny County,PA,15237,40.535937,-80.037396,POOLS (OUTDOOR),2022-07-21T14:15:00,2022-07-22T14:35:00,INITIAL INSPECTION,t,1,NOBBS SCOTT,1.6,1.8,0,0,,,7.4,7.4,<30,95,t,t,f,t,t,t,2022-07-25
277342,200696,770,GLENS HOMEOWNERS ASSOC. - POOL,100 INVERNESS DRIVE,,McCandless,MC CANDLESS,Allegheny County,PA,15237,40.566132,-80.0425125,POOL (CONDO OUTDOOR),2022-07-21T14:40:00,2022-07-22T15:25:00,INITIAL INSPECTION,t,1,NOBBS SCOTT,4,,0,,,,7.4,,,25,t,t,t,t,t,t,2022-07-25
277343,200734,10479,WASHINGTON GARDENS APTS POOL,133 LEE STREET,,Carnegie,Carnegie,Allegheny County,PA,15106,40.401234,-80.085249,POOLS (OUTDOOR),2022-07-25T13:40:00,2022-07-26T13:55:00,INITIAL INSPECTION,t,1,WOLFE CURRIER,4,,0,,,,7.6,,33,85,t,t,f,t,t,t,2023-08-29
277344,200736,2537,BARRINGTON MANOR POOL,200 BARRINGTON DRIVE,,Collier Township,OAKDALE,Allegheny County,PA,15071,40.404852,-80.1479835,POOL (CONDO OUTDOOR),2022-07-25T14:45:00,2022-07-26T15:05:00,INITIAL INSPECTION,t,1,MANOWN MARYANN,5,,0,,,,7.2,,<30,50,t,t,f,t,t,t,2022-08-16
277345,200737,5621,GATEWAY HEIGHTS SWIM CLUB WADING POOL,2249 RAMSEY  DRIVE,,Monroeville,MONROEVILLE,Allegheny County,PA,15146,40.409955,-79.7517405,POOLS (OUTDOOR),2022-07-21T13:00:00,2022-07-26T13:30:00,INITIAL INSPECTION,f,1,MURPHY COLLEEN,,,,,,,,,,,t,t,t,t,t,t,2022-08-05
277346,200743,5443,THE YARDS @ 3 CROSSINGS - SPA,2625 RAILROAD STREET,,Pittsburgh,PITTSBURGH,Allegheny County,PA,15222,,,SPA/HOT TUB (OUTDOOR),2022-07-22T10:00:00,2022-07-26T10:15:00,INITIAL INSPECTION,f,1,MURPHY COLLEEN,,,,,1.4,,7.2,,,40,t,t,t,t,t,t,2022-08-05
277347,200748,2298,CHARLEMAGNE II POOL,4000 CHARLEMAGNE CIRCLE,,Ross Township,PITTSBURGH,Allegheny County,PA,15237,40.544298,-80.0171145,POOL (CONDO OUTDOOR),2022-07-13T12:43:00,2022-07-26T12:53:00,INITIAL INSPECTION,f,1,NOBBS SCOTT,,,,,,,,,,,t,t,t,t,t,t,2022-08-10
277348,200752,10679,THE CORK FACTORY LOFTS POOL,2349 RAILROAD STREET,,Pittsburgh,Pittsburgh,Allegheny County,PA,15222,40.454685,-79.9833735,POOLS (OUTDOOR),2022-07-22T10:45:00,2022-07-26T11:15:00,INITIAL INSPECTION,f,1,MURPHY COLLEEN,1.8,,0,,,,7.4,,,65,t,t,t,t,t,t,2022-08-04
277349,200761,2474,ST CLAIR COUNTRY CLUB POOL,2300 OLD WASHINGTON ROAD,,Upper St Clair Township,PITTSBURGH,Allegheny County,PA,15241,40.331376,-80.0780265,POOLS (OUTDOOR),2022-07-26T14:10:00,2022-07-27T14:30:00,INITIAL INSPECTION,t,1,WOLFE CURRIER,3.6,3.8,0,0,,,7.4,7.4,<30,1350,t,t,t,t,t,t,2022-08-10
277350,200770,4141,TORRENTE APARTMENTS POOL,2565 BOYCE PLAZA  ROAD,,Upper St Clair Township,PITTSBURGH,Allegheny County,PA,15241,40.322511,-80.1135495,POOLS (OUTDOOR),2022-07-26T15:05:00,2022-07-27T15:30:00,INITIAL INSPECTION,t,1,WOLFE CURRIER,0.6,,0.4,,,,7.0,,>100,65,t,t,f,t,f,t,2023-06-07
277351,200780,167,POLO FIELDS AT HAMPTON POOL,5151 POLO FIELDS DRIVE,,Hampton Township,GIBSONIA,Allegheny County,PA,15044,40.611348,-79.945425,POOL (CONDO OUTDOOR),2022-07-27T09:20:00,2022-07-27T09:40:00,FOLLOW UP INSPECTION,t,2,NOBBS SCOTT,,,,,,,,,,,t,t,f,t,t,t,2022-08-16
277352,200795,1305,SAMPSON YMCA OUTDOOR POOL,2200 GOLDEN MILE  HIGHWAY,Rt#286,Plum,PITTSBURGH,Allegheny County,PA,15239,40.458069,-79.707636,POOLS (OUTDOOR),2022-07-26T12:41:00,2022-07-27T13:15:00,INITIAL INSPECTION,t,1,WILSON ANGELA,2.2,2.8,0,0,,,7.4,7.4,<30,560,t,t,f,t,t,t,2022-08-26
277353,200801,2529,SANDCASTLE / SPEED SLIDE,1000 SANDCASTLE DRIVE,,West Homestead,HOMESTEAD,Allegheny County,PA,15120,40.397805,-79.9272225,WATER SLIDE POOLS,2022-07-26T10:15:00,2022-07-28T10:25:00,FOLLOW UP INSPECTION,t,2,ANDERSON IAN,3,,0,,,,7.8,,,70,t,t,f,t,t,t,2022-08-12
277354,200804,2289,OAKMONT LANDING APT POOL,101 WASHINGTON AVENUE,,Oakmont,OAKMONT,Allegheny County,PA,15139,40.517307,-79.848261,POOLS (OUTDOOR),2022-07-22T09:00:00,2022-07-28T10:30:00,FOLLOW UP INSPECTION,t,2,FREEMAN MICHELE,6,6,0.2,0.2,0,0,7.2,7.2,<50,75,t,t,f,t,t,t,2023-06-09
277355,200813,2213,FOX CHAPEL RACQUET CLUB POOL,355 HUNT ROAD,,Fox Chapel,PITTSBURGH,Allegheny County,PA,15238,40.510764,-79.89246,POOLS (OUTDOOR),2022-07-27T11:30:00,2022-07-28T13:30:00,FOLLOW UP INSPECTION,t,2,FREEMAN MICHELE,2.4,2.4,0.2,0.2,0,0,7.2,7.2,<50,450,t,t,f,t,t,t,2023-08-09
277356,200819,1308,SANDCASTLE / DRAGON'S DEN POOL,1000 SANDCASTLE DRIVE,,West Homestead,WEST HOMESTEAD,Allegheny County,PA,15120,40.397805,-79.9272225,WATER SLIDE POOLS,2022-07-26T11:30:00,2022-07-28T11:40:00,FOLLOW UP INSPECTION,t,2,ANDERSON IAN,4,,0,,,,7.8,,,230,t,t,f,t,t,t,2022-08-10
277357,200848,2469,SQUIRES MANOR POOL,7000 SQUIRES MANOR LANE,,South Park Township,SOUTH PARK,Allegheny County,PA,15129,40.294791,-79.990695,POOLS (OUTDOOR),2022-07-29T11:00:00,2022-08-01T12:00:00,INITIAL INSPECTION,t,1,CONLEY FAON,6.2,6.2,0.2,0.2,,,9.1,9.1,,,t,t,t,t,f,t,2023-08-03
277358,200867,274,NORTH PARK WADING POOL, S RIDGE DRIVE,,McCandless,ALLISON PARK,Allegheny County,PA,15101,,,WADING POOL SYSTEM,2022-08-01T15:00:00,2022-08-02T15:15:00,FOLLOW UP INSPECTION,t,2,NOBBS SCOTT,,,,,,,,,,,t,t,f,t,t,t,2022-08-10
277359,200874,4241,CAMP GUYASUTA SPRAY PAD,300 23RD STREET  EX EXTENSION,,O'Hara Township,PITTSBURGH,Allegheny County,PA,15238,40.496958,-79.911225,WADING POOL SYSTEM,2022-08-01T13:00:00,2022-08-02T15:00:00,INITIAL INSPECTION,t,1,FREEMAN MICHELE,18,,0.6,,0,0,8.0,,<50,120,t,t,t,t,f,f,2023-08-09
277360,200891,2416,FOREST GLEN CONDO POOL,1514 FOREST GREEN DRIVE,,Moon Township,CORAOPOLIS,Allegheny County,PA,15108,40.507641,-80.2158345,POOL (CONDO OUTDOOR),2022-08-02T15:45:00,2022-08-03T16:15:00,FOLLOW UP INSPECTION,t,2,MANOWN MARYANN,8,1.5,0,0,,,8.0,8.0,45,,t,t,f,t,f,t,2023-08-17
277361,200903,8776,BRACKEN HOUSE NORTH SHORE POOL,100 ANDERSON STREET,,PITTSBURGH,Pittsburgh,Allegheny County,PA,15212,40.448628,-79.9993575,POOLS (OUTDOOR),2022-08-03T15:20:00,2022-08-04T15:40:00,FOLLOW UP INSPECTION,t,2,NOBBS SCOTT,,,,,,,,,,,t,t,f,t,t,t,2022-08-12
277362,200928,275,WATERFORD NEVILLEWOOD POOL,1900 TEE COURT,,Collier Township,PRESTO,Allegheny County,PA,15142,40.392243,-80.102628,POOLS (OUTDOOR),2022-08-04T13:30:00,2022-08-05T13:55:00,INITIAL INSPECTION,t,1,WOLFE CURRIER,2.6,,0,,,,7.4,,<30,72,t,t,t,t,t,t,2022-08-31
277363,200948,9717,KAUFMANNS GRAND ON 5TH POOL,434 5TH AVENUE,,Pittsburgh,Pittsburgh,Allegheny County,PA,15219,40.439691,-79.9980705,POOLS (OUTDOOR),2022-08-01T09:30:00,2022-08-08T10:00:00,INITIAL INSPECTION,f,1,MURPHY COLLEEN,,,,,,,,,,,t,t,t,t,t,t,2022-08-01
277364,201008,2357,CHARTIERS VALLEY HIGH SCHOOL POOL,50 THOMS RUN  ROAD,,Collier Township,PRESTO,Allegheny County,PA,15017,40.378779,-80.102538,POOLS (SCHOOLS),2022-08-10T11:00:00,2022-08-11T11:45:00,INITIAL INSPECTION,t,1,LAURIA D. ANTHONY,3.2,3.2,0,9,,,7.6,7.6,,,t,t,t,t,t,t,2022-09-28
277365,201031,5983,NEVILLESIDE  HOA POOL ,1900 CAMBRIDGE  DRIVE,,Collier Township,PRESTO,Allegheny County,PA,15142,40.38822,-80.1363375,POOL (CONDO OUTDOOR),2022-08-11T13:20:00,2022-08-12T13:50:00,FOLLOW UP INSPECTION,t,2,LAURIA D. ANTHONY,2.6,2.6,0,0,,,7.4,7.4,0,80,t,t,f,t,t,t,2022-08-17
277366,201038,2395,WYNGATE SWIM CLUB POOL,100 N JAMESTOWN ROAD,,Moon Township,CORAOPOLIS,Allegheny County,PA,15108,40.532463,-80.212698,WADING POOL SYSTEM,2022-08-09T12:40:00,2022-08-12T13:35:00,INITIAL INSPECTION,t,1,MANOWN MARYANN,3,3.5,0,0,,,7.6,7.4,35,355,t,t,f,t,t,t,2022-08-15
277367,201054,2287,CHAPEL GATE SWIM CLUB POOL,119 GLEN DAVID DRIVE,PO Box 7735,O'Hara Township,PGH,Allegheny County,PA,15238,40.532472,-79.918713,POOLS (OUTDOOR),2022-08-05T10:00:00,2022-08-12T11:00:00,INITIAL INSPECTION,f,1,FREEMAN MICHELE,1.4,1.2,0,0,0,0,7.4,7.4,<50,750,t,t,t,t,t,t,2022-08-15
277368,201072,756,COLONY WEST SEASONAL APT POOL,350 COLONY WEST DRIVE,,Moon Township,CORAOPOLIS,Allegheny County,PA,15108,40.518522,-80.2245555,POOLS (OUTDOOR),2022-08-09T11:55:00,2022-08-15T12:30:00,INITIAL INSPECTION,t,1,MANOWN MARYANN,3,,0,,,,7.2,,70,75,t,t,f,t,t,t,2024-08-06
277369,201078,2020,MOORE POOL/CITY OF PITTSBURGH,1801 PIONEER AVENUE,,Pittsburgh,PITTSBURGH,Allegheny County,PA,15226,40.405545,-80.013933,POOLS (OUTDOOR),2022-08-11T12:50:00,2022-08-15T13:25:00,FOLLOW UP INSPECTION,t,3,MANOWN MARYANN,1.5,1.5,0,0,,,7.4,7.4,45,1250,t,t,t,t,t,t,2022-08-15
277370,201079,1510,CITY VISTA APARTMENTS - POOL,325 ELIZABETH DRIVE,,Green Tree,PITTSBURGH,Allegheny County,PA,15220,40.427028,-80.0362305,POOLS (OUTDOOR),2022-08-11T14:25:00,2022-08-15T14:40:00,FOLLOW UP INSPECTION,t,4,MANOWN MARYANN,,,,,,,,,,,t,t,t,t,t,t,2022-09-09
277371,201083,8496,WATERFORD LANDING APTS POOL,1200 LANDING LANE,,Moon Township,Coraopolis,Allegheny County,PA,15108,40.524651,-80.225208,POOLS (OUTDOOR),2022-08-09T14:55:00,2022-08-15T15:10:00,FOLLOW UP INSPECTION,t,3,MANOWN MARYANN,2.5,,,,,,,,,,t,t,f,t,t,t,2022-08-16
277372,201084,1411,BRIGHT OAKS APARTMENT POOL,300 OLD MILL  ROAD,,North Fayette Township,OAKDALE,Allegheny County,PA,15071,40.419711,-80.216649,POOLS (OUTDOOR),2022-08-09T16:15:00,2022-08-15T16:25:00,FOLLOW UP INSPECTION,t,3,MANOWN MARYANN,,,,,,,,,,95,t,t,t,t,t,t,2022-08-16
277373,201119,1177,BERKSHIRES CLUBHOUSE / WADING POOL,6000 MIDDLEFIELD DRIVE,,South Fayette Township,MCDONALD,Allegheny County,PA,15057,40.368474,-80.1773595,POOL (CONDO OUTDOOR),2022-08-15T13:40:00,2022-08-16T14:00:00,INITIAL INSPECTION,t,1,ANDERSON IAN,4.6,,0,,,,<7,,,20,t,t,f,t,f,t,2023-08-30
277374,201130,2308,CASCADES POOL,100 E WEST DRIVE,,Ross Township,PITTSBURGH,Allegheny County,PA,15237,40.506579,-80.021178,POOLS (OUTDOOR),2022-08-15T14:50:00,2022-08-16T15:40:00,FOLLOW UP INSPECTION,t,2,NOBBS SCOTT,,,,,,,,,,117,t,t,f,t,t,t,2022-08-18
277375,201149,8936,PARK WEST 205 APARTMENT POOL,1000 PARK WEST PLACE,,Robinson Township,Pittsburgh,Allegheny County,PA,15205,40.433139,-80.14266,POOLS (OUTDOOR),2022-08-11T15:55:00,2022-08-17T16:15:00,FOLLOW UP INSPECTION,t,3,MANOWN MARYANN,,,,,,,,,100,70,t,t,f,t,t,t,2023-06-22
277376,201152,2212,ETNA POOL, PINE STREET,,Etna,PITTSBURGH,Allegheny County,PA,15223,,,POOLS (OUTDOOR),2022-08-15T12:00:00,2022-08-17T12:30:00,FOLLOW UP INSPECTION,t,2,FREEMAN MICHELE,1.6,1.6,0.2,0.2,0,0,7.2,7.2,<50,450,t,t,f,t,t,t,2022-08-18
277377,201170,2133,ALCOMA ON THE GREEN POOL,225 ALCOMA BOULEVARD,#114,Penn Hills,PITTSBURGH,Allegheny County,PA,15235,40.485366,-79.8011595,POOLS (OUTDOOR),2022-08-17T14:00:00,2022-08-18T14:20:00,FOLLOW UP INSPECTION,t,3,WILSON ANGELA,,,,,,,,,,,t,t,f,t,t,t,2022-08-18
277378,201173,9697,HAMPSHIRE HOUSE APT POOL,195 MT LEBANON BOULEVARD,,Mount Lebanon,Pittsburgh,Allegheny County,PA,15228,40.368321,-80.0388225,POOLS (OUTDOOR),2022-08-17T14:15:00,2022-08-18T14:20:00,FOLLOW UP INSPECTION,t,2,WOLFE CURRIER,,,,,,,7.0,,,120,t,t,t,t,f,t,2023-08-25
277379,201181,2362,CRAFTON BOROUGH POOL,117 W STEUBEN STREET,,Crafton,PITTSBURGH,Allegheny County,PA,15205,40.438197,-80.0729055,POOLS (OUTDOOR),2022-08-18T16:16:00,2022-08-19T16:25:00,FOLLOW UP INSPECTION,t,3,MANOWN MARYANN,,,,,,,,,,475,t,t,t,t,t,t,2022-08-22
277380,201185,350,VENTANA HILLS POOL,1350 VENTANA DRIVE,,ROBINSON TOWNSHIP,CORAOPOLIS,Allegheny County,PA,15108,40.467483,-80.150058,POOLS (OUTDOOR),2022-08-18T14:40:00,2022-08-19T15:00:00,FOLLOW UP INSPECTION,t,9,MANOWN MARYANN,,,,,,,,,,,t,t,f,t,t,t,2023-09-14
277381,201218,2448,MANORVIEW APTS POOL,101 MANORVIEW ROAD,,Scott Township,PITTSBURGH,Allegheny County,PA,15220,40.394493,-80.0650395,POOLS (OUTDOOR),2022-08-18T15:10:00,2022-08-22T15:30:00,FOLLOW UP INSPECTION,t,2,ANDERSON IAN,,,,,,,,,,,t,t,f,t,t,t,2022-08-23
277382,201255,1240,HIGHLANDS ESTATES CONDO ASSOCIATION POOL,601 GLENGARRY  COURT,,Plum,PLUM BOROUGH,Allegheny County,PA,15239,,,POOL (CONDO OUTDOOR),2022-08-22T14:30:00,2022-08-23T14:40:00,FOLLOW UP INSPECTION,t,5,WILSON ANGELA,2.2,,,,,,,,,,t,t,f,t,t,t,2022-08-23
277383,201296,3901,SAMPSON FAMILY YMCA THERAPY POOL,2200 GOLDEN MILE HIGHWAY,,Plum,PITTSBURGH,Allegheny County,PA,15239,40.458069,-79.707636,POOLS (INDOOR),2022-08-24T14:41:00,2022-08-26T14:49:00,FOLLOW UP INSPECTION,t,2,WILSON ANGELA,,,,,,,,,,,t,t,f,t,t,t,2022-09-26
277384,201314,10737,CAMBRIA SUITES PGH @ PPG PAINTS ARENA POOL,1320 CENTRE  AVENUE,,Pittsburgh,Pittsburgh,Allegheny County,PA,15219,40.440087,-79.987977,POOLS (INDOOR),2022-08-24T11:20:00,2022-08-26T11:30:00,FOLLOW UP INSPECTION,t,3,ANDERSON IAN,,,,,,,,,,,t,t,f,t,t,t,2023-09-14
277385,201325,1013,FAIRFIELD INN NEVILLE POOL,5850 GRAND AVENUE,,Neville Township,PITTSBURGH,Allegheny County,PA,15225,40.513725,-80.1332055,POOLS (INDOOR),2022-08-26T15:03:00,2022-08-29T15:56:00,FOLLOW UP INSPECTION,t,2,LAURIA D. ANTHONY,3,3,0,0,,,7.6,7.6,,45,t,t,t,t,t,t,2022-08-29
277386,201327,7062,ONE ON CENTRE APARTMENTS POOL,4500 CENTRE AVENUE,,Pittsburgh,PITTSBURGH,Allegheny County,PA,15213,40.451391,-79.953039,POOLS (OUTDOOR),2022-08-26T13:30:00,2022-08-29T13:45:00,FOLLOW UP INSPECTION,t,8,WILSON ANGELA,,,,,,,,,,,t,t,f,t,t,t,2023-06-23
277387,201330,2298,CHARLEMAGNE II POOL,4000 CHARLEMAGNE CIRCLE,,Ross Township,PITTSBURGH,Allegheny County,PA,15237,40.544298,-80.0171145,POOL (CONDO OUTDOOR),2022-08-26T15:00:00,2022-08-29T15:30:00,FOLLOW UP INSPECTION,t,2,NOBBS SCOTT,,,,,,,7.2,,,60,t,t,f,t,f,t,2023-07-11
277388,201346,1495,VILLAGES OF NEVILLE PARK -POOL,100 NEVILLE PARK BOULEVARD,,Collier Township,BRIDGEVILLE,Allegheny County,PA,15017,40.381569,-80.0976285,POOL (CONDO OUTDOOR),2022-08-29T14:00:00,2022-08-30T14:45:00,FOLLOW UP INSPECTION,t,2,LAURIA D. ANTHONY,2.6,2.6,0,0,,,7.2,7.2,,50,t,t,f,t,t,t,2022-08-31
277389,201372,11100,HAMPTON INN BY HILTON - WEXFORD - POOL,2622 WEXFORD BAYNE ROAD,2622,Franklin Park,Sewickley,Allegheny County,PA,15143,40.613634,-80.098992,POOLS (INDOOR),2022-08-29T14:30:00,2022-08-31T15:35:00,INITIAL INSPECTION,t,1,NOBBS SCOTT,,,,,15.3,,7.2,,,70,t,t,t,t,t,t,2022-09-20
277390,201460,2403,MONTOUR HEIGHTS COUNTRY CLUB POOL,1491 CORAOPOLIS HEIGHTS ROAD,,Moon Township,CORAOPOLIS,Allegheny County,PA,15108,40.503087,-80.195904,POOLS (OUTDOOR),2022-09-02T15:15:00,2022-09-07T15:25:00,FOLLOW UP INSPECTION,t,3,MANOWN MARYANN,5,4.5,,,,,7.6,7.6,,,t,t,f,t,f,t,2023-06-27
277391,201462,2517,GRANDVIEW POINTE APTS POOL,1411 GRANDVIEW AVENUE,,Pittsburgh,PITTSBURGH,Allegheny County,PA,15211,40.438485,-80.021331,POOLS (OUTDOOR),2022-09-02T13:55:00,2022-09-07T14:00:00,FOLLOW UP INSPECTION,t,4,MANOWN MARYANN,,,,,,,7.2,,,,t,t,t,t,f,t,2022-09-09
277392,201463,1510,CITY VISTA APARTMENTS - POOL,325 ELIZABETH DRIVE,,Green Tree,PITTSBURGH,Allegheny County,PA,15220,40.427028,-80.0362305,POOLS (OUTDOOR),2022-09-02T14:10:00,2022-09-07T14:15:00,FOLLOW UP INSPECTION,t,5,MANOWN MARYANN,,,,,,,,,,,t,t,t,t,t,t,2022-09-09
277393,201490,7798,MOON GROVE APTS POOL #2 UPPER POOL,916 BEAVER GRADE ROAD,,Moon Township,Coraopolis,Allegheny County,PA,15108,40.511511,-80.214633,POOLS (OUTDOOR),2022-09-02T16:00:00,2022-09-07T16:15:00,FOLLOW UP INSPECTION,t,3,MANOWN MARYANN,,,,,,,,,,,t,t,f,t,t,t,2023-08-30
277394,201534,314,HIGHLANDS OF MONTOUR RUN POOL,100 LINCOLN HIGHLANDS  DRIVE,,North Fayette Township,COROAPOLIS,Allegheny County,PA,15108,40.450806,-80.200134,POOLS (OUTDOOR),2022-09-09T11:55:00,2022-09-12T12:10:00,FOLLOW UP INSPECTION,t,5,MANOWN MARYANN,,,,,,,,,,,t,t,f,t,t,t,2023-06-19
277395,201535,136,LAKEMONT FARMS POOL,100 PORTMAN LANE,,South Fayette Township,BRIDGEVILLE,Allegheny County,PA,15017,40.339908,-80.119017,POOLS (OUTDOOR),2022-09-09T15:50:00,2022-09-12T16:00:00,FOLLOW UP INSPECTION,t,4,MANOWN MARYANN,,,,,,,,,,,t,t,f,t,t,t,2022-09-19
277396,201567,6243,STAYBRIDGE SUITES CRANBERRY POOL,915 BRUSH CREEK ROAD,,Marshall Township,WARRENDALE,Allegheny County,PA,15086,40.661658,-80.0979525,POOLS (INDOOR),2022-09-13T14:35:00,2022-09-14T15:30:00,INITIAL INSPECTION,t,1,NOBBS SCOTT,,,,,0,,7.2,,,60,t,t,t,t,t,f,2023-01-18
277397,201593,1208,PITTSBURGH PLAZA HOTEL - PITTSBURGH WEST POOL,401 HOLIDAY DRIVE,,Green Tree,PITTSBURGH,Allegheny County,PA,15220,40.420404,-80.0566785,POOLS (OUTDOOR),2022-09-09T10:50:00,2022-09-15T10:55:00,FOLLOW UP INSPECTION,t,2,MANOWN MARYANN,,,,,,,,,,,t,t,t,t,t,t,2022-11-25
277398,201609,479,LONDONBURY HOMES ASSOC BABY POOL,220 DOWNING DRIVE,,Moon Township,CORAOPOLIS,Allegheny County,PA,15108,40.491747,-80.1729585,WADING POOL SYSTEM,2022-09-16T09:00:00,2022-09-16T09:10:00,FOLLOW UP INSPECTION,t,3,MANOWN MARYANN,4,,0.2,,,,,,40,,t,t,f,t,t,f,2022-09-19
277399,201712,678,CHATHAM UNIVERSITY  SPA, WOODLAND ROAD,,Pittsburgh,PITTSBURGH,Allegheny County,PA,15232,40.451737059,-79.925632142,SPA/HOT TUB (INDOOR),2022-09-20T09:30:00,2022-09-23T09:45:00,INITIAL INSPECTION,f,1,MURPHY COLLEEN,,,,,,,,,,,t,t,t,t,t,t,2022-09-20
277400,201732,10417,2626 SOUTH SIDE FLATS - POOL,2626 TUNNEL BOULEVARD,,Pittsburgh,Pittsburgh,Allegheny County,PA,15203,40.429134,-79.966926,POOLS (INDOOR),2022-09-23T10:00:00,2022-09-26T10:15:00,FOLLOW UP INSPECTION,t,2,CONLEY FAON,4.2,4.2,0,0,0,0,7.4,7.4,,125,t,t,f,t,t,t,2022-09-27
277401,201733,10418,2626 SOUTH SIDE FLATS - SPA,2626 TUNNEL  BOULEVARD,,Pittsburgh,Pittsburgh,Allegheny County,PA,15203,40.429134,-79.966926,SPA/HOT TUB (INDOOR),2022-09-23T10:30:00,2022-09-26T10:40:00,FOLLOW UP INSPECTION,t,2,CONLEY FAON,4.2,4.2,0,0,0,0,7.4,7.4,,125,t,t,f,t,t,t,2022-09-27
277402,201742,8538,TOWNEPLACE SUITES BY MARRIOTT POOL,1006 SUTHERLAND DRIVE,,Robinson Township,Pittsburgh,Allegheny County,PA,15205,40.455243,-80.172162,POOLS (INDOOR),2022-09-20T16:10:00,2022-09-26T16:35:00,INITIAL INSPECTION,t,1,MANOWN MARYANN,13.5,,0.2,,,,7.2,,,,t,t,f,t,t,f,2022-09-27
277403,201744,1181,COURTYARD BY MARRIOTT SETTLERS RIDGE POOL,5100 CAMPBELLS RUN ROAD,,ROBINSON TOWNSHIP,PITTSBURGH,Allegheny County,PA,15205,40.43889,-80.151444,POOLS (INDOOR),2022-09-21T15:40:00,2022-09-26T16:05:00,INITIAL INSPECTION,f,1,MANOWN MARYANN,3.5,,0,,,,7.4,,,50,t,t,t,t,t,t,2022-09-27
277404,201813,1212,RESIDENCE INN BY MARRIOTT POOL,3455 WILLIAM PENN HIGHWAY,,Wilkins Township,PITTSBURGH,Allegheny County,PA,15235,40.431537,-79.81155,POOLS (INDOOR),2022-09-28T10:00:00,2022-09-29T10:39:00,FOLLOW UP INSPECTION,t,2,WILSON ANGELA,18.6,,,,,,7.6,,,85,t,t,f,t,t,t,2023-05-10
277405,201869,915,SARAH HEINZ HOUSE POOL,1 HEINZ STREET,,Pittsburgh,PITTSBURGH,Allegheny County,PA,15212,40.454946,-79.9927965,POOLS (INDOOR),2022-10-03T11:00:00,2022-10-04T12:00:00,INITIAL INSPECTION,t,1,NOBBS SCOTT,1.4,1.6,0.2,0,,,7.6,7.6,,295,t,t,t,t,t,t,2022-10-05
277406,202010,2463,SOUTH FAYETTE JR / SR HIGH SCHOOL POOL,3700 OLD OAKDALE ROAD,,South Fayette Township,MCDONALD,Allegheny County,PA,15057,40.377375,-80.170965,POOLS (SCHOOLS),2022-10-07T13:45:00,2022-10-11T14:52:00,FOLLOW UP INSPECTION,t,3,ARMSTRONG RYAN,4,,0,,,,7.4,,,400,t,t,f,t,t,t,2022-10-14
277407,202049,2536,HICKORY HEIGHTS POOL ASSOC,118 HICKORY HEIGHTS DRIVE,,South Fayette Township,BRIDGEVILLE,Allegheny County,PA,15017,40.340889,-80.14149,POOLS (OUTDOOR),2022-10-13T10:00:00,2022-10-13T10:10:00,FOLLOW UP INSPECTION,t,2,NOBBS SCOTT,,,,,,,,,,,t,t,f,t,t,t,2023-08-04
277408,202050,750,GREENBRIER VILLAGE APARTMENTS POOL,1701 GREENVALLEY DRIVE,,Scott Township,PITTSBURGH,Allegheny County,PA,15220,40.398012,-80.061876,POOLS (OUTDOOR),2022-10-13T10:10:00,2022-10-13T10:20:00,FOLLOW UP INSPECTION,t,2,NOBBS SCOTT,,,,,,,,,,,t,t,f,t,t,t,2023-08-25
277409,202093,1464,HAMPTON INN BRIDGEVILLE POOL,150 OLD POND  ROAD,,South Fayette Township,BRIDGEVILLE,Allegheny County,PA,15017,40.35429,-80.120628,POOLS (INDOOR),2022-10-13T13:50:00,2022-10-17T14:20:00,INITIAL INSPECTION,t,1,ARMSTRONG RYAN,2,,0.2,,,,7.4,,,50,t,t,f,t,t,t,2022-10-20
277410,202115,2035,YMCA / ALLEGHENY POOL,600 W NORTH AVENUE,,Pittsburgh,PITTSBURGH,Allegheny County,PA,15212,40.454559,-80.0128305,POOLS (INDOOR),2022-10-17T13:15:00,2022-10-18T14:00:00,INITIAL INSPECTION,t,1,NOBBS SCOTT,1,1,0.2,0.4,,,7.4,7.4,,100,t,t,t,t,t,t,2022-10-21
277411,202207,7695,STAYBRIDGE SUITES POOL,239 SUMMIT PARK DRIVE,,North Fayette Township,Pittsburgh,Allegheny County,PA,15275,40.448313,-80.1784215,POOLS (INDOOR),2022-10-11T11:15:00,2022-10-21T12:05:00,FOLLOW UP INSPECTION,t,2,MANOWN MARYANN,3.5,,0.5,,,,7.4,,,80,t,t,f,t,t,t,2022-10-24
277412,202380,5443,THE YARDS @ 3 CROSSINGS - SPA,2625 RAILROAD STREET,,Pittsburgh,PITTSBURGH,Allegheny County,PA,15222,,,SPA/HOT TUB (OUTDOOR),2022-10-24T11:30:00,2022-10-31T11:45:00,INITIAL INSPECTION,f,1,MURPHY COLLEEN,,,,,,,,,,,t,t,t,t,t,t,2022-11-01
277413,202652,1140,RESIDENCE INN POOL,574 W GENERAL ROBINSON STREET,,Pittsburgh,PITTSBURGH,Allegheny County,PA,15212,40.44798,-80.007309,POOLS (INDOOR),2022-11-16T10:20:00,2022-11-17T11:20:00,INITIAL INSPECTION,t,1,NOBBS SCOTT,2.2,,0.4,,,,7.2,,,90,t,t,f,t,t,t,2022-11-18
277414,202654,1414,HYATT PLACE POOL,260 N SHORE DRIVE,,Pittsburgh,PITTSBURGH,Allegheny County,PA,15212,40.446738,-80.008965,POOLS (INDOOR),2022-11-16T11:30:00,2022-11-17T12:30:00,INITIAL INSPECTION,t,1,NOBBS SCOTT,,,,,22.5,,7.6,,,60,t,t,f,t,t,f,2023-01-18
277415,202711,1414,HYATT PLACE POOL,260 N SHORE DRIVE,,Pittsburgh,PITTSBURGH,Allegheny County,PA,15212,40.446738,-80.008965,POOLS (INDOOR),2022-11-18T12:15:00,2022-11-21T13:00:00,FOLLOW UP INSPECTION,t,2,NOBBS SCOTT,,,,,19.8,,,,,,t,t,f,t,t,t,2023-01-18
277416,202834,9538,SPRINGHILL SUITES MT LEBANON POOL,611 WASHINGTON ROAD,,Mount Lebanon,Pittsburgh,Allegheny County,PA,15228,40.382676,-80.043705,POOLS (INDOOR),2022-11-23T14:30:00,2022-11-25T15:00:00,FOLLOW UP INSPECTION,t,2,SCHLAICH ELLIOT,,,0,0,,,7.4,,,,t,t,f,t,t,t,2022-12-01
277417,202986,2219,FOX CHAPEL GOLF CLUB POOL,426 FOX CHAPEL ROAD,,Fox Chapel,PGH,Allegheny County,PA,15238,40.522932,-79.877817,WADING POOL SYSTEM,2022-11-25T09:00:00,2022-12-02T09:30:00,FOLLOW UP INSPECTION,t,6,FREEMAN MICHELE,2.4,1.8,0,0,0,0,7.8,7.0,<50,440,t,t,f,t,t,t,2022-12-14
277418,203060,1201,MOON HIGH SCHOOL POOL,8353 UNIVERSITY BOULEVARD,,Moon Township,MOON TOWNSHIP,Allegheny County,PA,15108,40.510314,-80.220006,POOLS (SCHOOLS),2022-12-02T09:45:00,2022-12-06T10:35:00,INITIAL INSPECTION,t,1,MANOWN MARYANN,1.8,1.4,0.2,0.2,,,7.4,7.4,,130,t,t,f,t,t,t,2022-12-06
277419,203173,1995,PGH COLFAX K - 8 POOL,2332 BEECHWOOD BOULEVARD,,Pittsburgh,PITTSBURGH,Allegheny County,PA,15217,40.433058,-79.9153605,POOLS (SCHOOLS),2022-12-08T09:00:00,2022-12-12T09:30:00,INITIAL INSPECTION,f,1,MURPHY COLLEEN,3,,0,,,,7.6,,,120,t,t,t,t,t,t,2022-12-14
277420,203183,1212,RESIDENCE INN BY MARRIOTT POOL,3455 WILLIAM PENN HIGHWAY,,Wilkins Township,PITTSBURGH,Allegheny County,PA,15235,40.431537,-79.81155,POOLS (INDOOR),2022-12-09T10:10:00,2022-12-12T10:32:00,FOLLOW UP INSPECTION,t,4,WILSON ANGELA,,,,,,,,,,,t,t,f,t,t,t,2023-05-10
277421,203208,2285,FOX CHAPEL HIGH SCHOOL POOL,611 FIELD CLUB ROAD,,O'Hara Township,PITTSBURGH,Allegheny County,PA,15238,40.518099,-79.868673,POOLS (SCHOOLS),2022-12-05T12:00:00,2022-12-13T13:00:00,INITIAL INSPECTION,f,1,FREEMAN MICHELE,1.6,1.8,0.2,0.2,0,0,7.2,7.2,0,731,t,t,t,t,t,t,2022-12-15
277422,203278,2030,GREENWAY CLASSICAL ACADEMY POOL,1400 CRUCIBLE STREET,,Pittsburgh,PITTSBURGH,Allegheny County,PA,15205,40.448574,-80.049708,POOLS (SCHOOLS),2022-12-12T09:55:00,2022-12-15T10:30:00,INITIAL INSPECTION,t,1,MANOWN MARYANN,1.6,2,0,0.2,,,7.4,7.4,,280,t,t,f,t,t,t,2022-12-21
277423,203322,5142,COMFORT INN & SUITES POOL,1100 BANKSVILLE ROAD,,Pittsburgh,PITTSBURGH,Allegheny County,PA,15216,40.419909,-80.030268,POOLS (INDOOR),2022-12-12T11:30:00,2022-12-19T12:20:00,INITIAL INSPECTION,t,1,MANOWN MARYANN,4.6,,0.8,,,,7.2,,,65,t,t,f,t,t,t,
277424,203328,1097,MCKNIGHT HOTEL - POOL,4575 MCKNIGHT ROAD,,Ross Township,PITTSBURGH,Allegheny County,PA,15237,40.504518,-80.0103645,POOLS (INDOOR),2022-12-16T11:30:00,2022-12-19T11:50:00,FOLLOW UP INSPECTION,t,2,NOBBS SCOTT,2.8,,0.6,,,,,,,,t,t,f,t,t,t,2022-12-22
277425,203407,4646,HOMEWOOD SUITES POOL,1410 SMALLMAN STREET,,Pittsburgh,PITTSBURGH,Allegheny County,PA,15222,40.448124,-79.9897545,POOLS (INDOOR),2022-12-21T13:00:00,2022-12-21T13:30:00,INITIAL INSPECTION,f,1,MURPHY COLLEEN,3,,0,,,,7.2,,,60,t,t,t,t,t,t,2022-12-22
277426,203413,2455,VIRGINIA MANSIONS CONDO POOL,2120 GREENTREE ROAD,,Scott Township,PITTSBURGH,Allegheny County,PA,15220,40.392324,-80.0710245,POOL (CONDO INDOOR),2022-12-21T14:00:00,2022-12-22T15:00:00,INITIAL INSPECTION,f,1,LAURIA D. ANTHONY,3.2,3.2,0,0,,,7.4,7.4,,80,t,t,t,t,t,t,2023-01-05
277427,203433,5781,MORROW PARK CITY APARTMENTS POOL,5250 LIBERTY  AVENUE,,Pittsburgh,PITTSBURGH,Allegheny County,PA,15224,40.456728,-79.940232,POOLS (INDOOR),2022-12-22T10:00:00,2022-12-23T11:00:00,FOLLOW UP INSPECTION,t,3,LINDGREN ERIC,,,,,,,,,,,t,t,f,t,t,t,
277428,203457,1410,WYNDHAM GRAND PITTSBURGH - SPA,600 COMMONWEALTH PLACE,,Pittsburgh,PITTSBURGH,Allegheny County,PA,15222,40.441734,-80.0064045,SPA/HOT TUB (INDOOR),2022-12-27T14:15:00,2022-12-27T14:45:00,INITIAL INSPECTION,f,1,MURPHY COLLEEN,,,,,6,,7.8,,,20,t,t,t,t,t,t,2022-12-28
277429,203707,1963,DITHRIDGE HOUSE - POOL,220 N DITHRIDGE STREET,,Pittsburgh,PITTSBURGH,Allegheny County,PA,15213,40.449834,-79.9519995,POOL (CONDO INDOOR),2023-01-10T10:00:00,2023-01-11T10:10:00,FOLLOW UP INSPECTION,t,2,WILSON ANGELA,,,,,,,,,,,t,t,f,t,t,t,2023-01-11
277430,203708,1384,WYNDHAM UNIVERSITY CENTER / POOL,100 LYTTON AVENUE,,Pittsburgh,PITTSBURGH,Allegheny County,PA,15213,40.44609,-79.954632,POOLS (INDOOR),2023-01-10T10:30:00,2023-01-11T11:00:00,FOLLOW UP INSPECTION,t,3,WILSON ANGELA,,,,,,,,,,,t,t,f,t,t,t,2023-06-09
277431,203737,1414,HYATT PLACE POOL,260 N SHORE DRIVE,,Pittsburgh,PITTSBURGH,Allegheny County,PA,15212,40.446738,-80.008965,POOLS (INDOOR),2023-01-11T14:15:00,2023-01-12T14:35:00,FOLLOW UP INSPECTION,t,3,NOBBS SCOTT,,,,,10.8,,,,,,t,t,f,t,t,t,2023-01-18
277432,203738,1414,HYATT PLACE POOL,260 N SHORE DRIVE,,Pittsburgh,PITTSBURGH,Allegheny County,PA,15212,40.446738,-80.008965,POOLS (INDOOR),2023-01-11T14:35:00,2023-01-12T14:55:00,INITIAL INSPECTION,t,1,NOBBS SCOTT,,,,,10.8,,7.2,,,,t,t,f,t,t,t,2023-01-17
277433,203811,1121,DOUBLETREE HOTEL PITTSBURGH CONVENTION CTR SPA,101 MALL BOULEVARD,,Monroeville,MONROEVILLE,Allegheny County,PA,15146,40.431744,-79.792569,SPA/HOT TUB (INDOOR),2023-01-12T11:45:00,2023-01-18T12:00:00,INITIAL INSPECTION,f,1,MURPHY COLLEEN,,,,,7.5,,7.2,,,45,t,t,t,t,t,t,2023-01-18
277434,204080,5922,RESIDENCE INN OAKLAND UNIVERSITY PL POOL,3341 FORBES  AVENUE,,Pittsburgh,PITTSBURGH,Allegheny County,PA,15213,40.438188,-79.9621155,POOLS (INDOOR),2023-02-02T10:10:00,2023-02-02T10:10:00,FOLLOW UP INSPECTION,t,3,WILSON ANGELA,,,,,,,,,,,t,t,f,t,t,t,2023-02-02
277435,204132,11320,FAIRFIELD INN AND SUITES PITTSBURGH NEVILLE ISLAND POOL,5850 GRAND AVENUE,,Neville Township,Pittsburgh,Allegheny County,PA,15225,40.513725,-80.1332055,POOLS (INDOOR),2023-02-06T14:00:00,2023-02-07T15:00:00,INITIAL INSPECTION,t,1,LAURIA D. ANTHONY,1.6,1.6,0,0,,,8.4,8.4,,140,t,t,f,t,t,t,2023-03-20
277436,204207,2320,YMCA /SEWICKLEY VALLEY / SPA,625 BLACKBURN ROAD,,Sewickley,SEWICKLEY,Allegheny County,PA,15143,40.543209,-80.179974,SPA/HOT TUB (INDOOR),2023-02-10T12:00:00,2023-02-13T12:30:00,INITIAL INSPECTION,f,1,LAURIA D. ANTHONY,2,2,0,0,,,7.4,7.4,,40,t,t,t,t,t,t,2023-02-15
277437,204211,525,MASONIC VILLAGE @ SEWICKLEY WELLNESS CENTER,1000 MASONIC DRIVE,,Aleppo Township,SEWICKLEY,Allegheny County,PA,15143,40.530024,-80.142714,POOLS (INDOOR),2023-02-10T14:00:00,2023-02-13T14:20:00,INITIAL INSPECTION,f,1,LAURIA D. ANTHONY,2.6,2.6,0,0,,,7.6,7.6,,200,t,t,t,t,t,t,2023-02-16
277438,204328,2357,CHARTIERS VALLEY HIGH SCHOOL POOL,50 THOMS RUN  ROAD,,Collier Township,PRESTO,Allegheny County,PA,15017,40.378779,-80.102538,POOLS (SCHOOLS),2023-02-21T11:10:00,2023-02-22T12:00:00,INITIAL INSPECTION,t,1,LAURIA D. ANTHONY,2.4,2.4,0,0,,,7.4,7.4,,650,t,t,f,t,t,t,2023-03-15
277439,204359,1008,LA FITNESS PLEASANT HILLS SPA,601 CLAIRTON BOULEVARD,,Pleasant Hills,PITTSBURGH,Allegheny County,PA,15236,40.332177,-79.9441785,SPA/HOT TUB (INDOOR),2023-02-22T13:00:00,2023-02-23T14:00:00,INITIAL INSPECTION,t,1,CONLEY FAON,7,7,0,0,,,8.0,8.0,,50,t,t,f,t,f,t,2023-10-24
277440,204464,1027,LA FITNESS MONROEVILLE POOL,4100 WM PENN HIGHWAY,,Monroeville,MONROEVILLE,Allegheny County,PA,15146,,,POOLS (INDOOR),2023-02-28T14:00:00,2023-03-02T15:30:00,INITIAL INSPECTION,f,1,MURPHY COLLEEN,2.5,,0.2,,,,7.8,,,170,t,t,t,t,t,t,2023-03-02
277441,204467,1028,LA FITNESS MONROEVILLE SPA,4100 WM PENN HIGHWAY,,Monroeville,MONROEVILLE,Allegheny County,PA,15146,,,SPA/HOT TUB (INDOOR),2023-02-28T15:30:00,2023-03-02T15:45:00,INITIAL INSPECTION,f,1,MURPHY COLLEEN,5,,0.2,,,,7.7,,,40,t,t,t,t,t,t,2023-03-02
277442,204468,1971,TREES HALL POOL,1971 ALLEQUIPPA STREET,,Pittsburgh,PITTSBURGH,Allegheny County,PA,15260,,,POOLS (SCHOOLS),2023-02-28T11:30:00,2023-03-02T12:30:00,INITIAL INSPECTION,t,1,FREEMAN MICHELE,2.8,2.8,0.2,0.2,0,0,7.2,7.4,<50,1168,t,t,f,t,t,t,2024-04-11
277443,204473,1970,TREES HALL POOL,1970 ALLEQUIPPA STREET,,Pittsburgh,PITTSBURGH,Allegheny County,PA,15260,,,POOLS (SCHOOLS),2023-02-28T11:30:00,2023-03-02T12:30:00,INITIAL INSPECTION,t,1,FREEMAN MICHELE,1.6,1.6,0.2,0.2,0,0,7.6,7.6,<50,498,t,t,f,t,t,t,2024-04-11
277444,204478,7026,HAMPTON INN MONROEVILLE POOL,3000 MOSSIDE BOULEVARD,,Monroeville,Monroeville,Allegheny County,PA,15146,40.438386,-79.759386,POOLS (INDOOR),2023-03-01T14:00:00,2023-03-02T14:45:00,INITIAL INSPECTION,t,1,MURPHY COLLEEN,,,,,,,,,,,t,f,t,t,t,t,2023-03-03
277445,204576,1113,PROVIDENCE POINT SPA,200 ADAMS AVENUE,,Scott Township,PITTSBURGH,Allegheny County,PA,15243,40.378473,-80.088183,SPA/HOT TUB (INDOOR),2023-03-07T13:20:00,2023-03-08T13:40:00,INITIAL INSPECTION,f,1,DAILY NATHAN,,,,,10,,7.3,,,50,t,t,t,t,t,t,2023-03-16
277446,204684,1016,LA FITNESS POOL - COLLIER,1155 WASHINGTON PIKE,,Collier Township,BRIDGEVILLE,Allegheny County,PA,15017,40.36824,-80.1035865,POOLS (INDOOR),2023-03-13T13:45:00,2023-03-15T14:40:00,INITIAL INSPECTION,t,1,ARMSTRONG RYAN,1.8,,0.2,,,,7.2,,,160,t,t,t,t,t,t,2023-03-22
277447,204805,3843,GOLDFISH SWIM SCHOOL,160 LAKE DRIVE,,Pine Township,WEXFORD,Allegheny County,PA,15090,40.616406,-80.0526735,POOLS (INDOOR),2023-03-20T14:10:00,2023-03-22T14:50:00,INITIAL INSPECTION,t,1,NOBBS SCOTT,1.2,,0.4,,,,7.4,,,247,t,t,t,t,t,t,2023-03-22
277448,204808,7261,SPRINGHILL SUITES MONROEVILLE POOL,122 DAUGHERTY DRIVE,,Monroeville,Monroeville,Allegheny County,PA,15146,40.435839,-79.754346,POOLS (INDOOR),2023-03-21T09:00:00,2023-03-22T10:00:00,INITIAL INSPECTION,f,1,MURPHY COLLEEN,2,,0.2,,,,7.4,,,38,t,t,t,t,t,t,2023-03-22
277449,204828,3922,DOUBLETREE BY HILTON PGH CRANBERRY POOL,910 SHERATON  DRIVE,,Marshall Township,MARS,Allegheny County,PA,16046,40.668849,-80.094987,POOLS (INDOOR),2023-03-22T14:30:00,2023-03-23T15:30:00,INITIAL INSPECTION,f,1,NOBBS SCOTT,3.8,,0.2,,,,7.2,,,50,t,t,t,t,t,t,2023-03-23
277450,204885,7735,COMFORT INN SUITES - POOL,180 GAMMA  DRIVE,,O'Hara Township,Pittsburgh,Allegheny County,PA,15238,40.501836,-79.8603885,POOLS (INDOOR),2023-03-24T13:00:00,2023-03-27T13:30:00,FOLLOW UP INSPECTION,t,2,FREEMAN MICHELE,3.4,3.4,0.2,0.2,0,0,7.4,7.4,<50,,t,t,t,t,t,f,2023-03-27
277451,204887,5363,TOWNEPLACE SUITES BY MARRIOTT POOL,2785 FREEPORT   ROAD,,Harmar Township,PITTSBURGH,Allegheny County,PA,15238,40.538763,-79.832682,POOLS (INDOOR),2023-03-23T11:00:00,2023-03-27T12:00:00,INITIAL INSPECTION,t,1,FREEMAN MICHELE,2.6,2.6,0.2,0.2,0,0,7.8,7.8,<50,55,t,t,t,t,t,t,2024-04-11
277452,205346,2236,YMCA  / ALLEGHENY VALLEY POOL,5021 FREEPORT ROAD,,Harrison Township,NATRONA HEIGHTS,Allegheny County,PA,15065,40.651488,-79.7098995,POOLS (INDOOR),2023-04-19T15:00:00,2023-04-20T16:00:00,FOLLOW UP INSPECTION,t,2,FREEMAN MICHELE,2.4,2.4,0.2,0.2,0,0,7.6,7.6,<50,325,t,t,t,t,t,t,2023-04-20
277453,205374,953,BALDWIN HIGH SCHOOL POOL,4653 CLAIRTON BOULEVARD,,Whitehall,PITTSBURGH,Allegheny County,PA,15236,40.355631,-79.977339,POOLS (SCHOOLS),2023-03-29T10:20:00,,FOLLOW UP INSPECTION,t,4,ARMSTRONG RYAN,3.4,3.2,0,0,,,7.4,7.2,,538,t,t,f,t,t,t,2023-05-31
277454,205477,340,BROOKDALE MT. LEBANON POOL,1050 MCNEILLY ROAD,,Mount Lebanon,PITTSBURGH,Allegheny County,PA,15226,40.388202,-80.024949,POOLS (INDOOR),2023-04-27T12:45:00,2023-04-28T13:15:00,INITIAL INSPECTION,f,1,ZIRNGIBL BARBARA,,,,,4.8,4.8,7.8,7.8,,38,t,t,t,t,t,t,2023-05-02
277455,205478,341,BROOKDALE MT. LEBANON SPA,1050 MCNEILLY ROAD,,Mount Lebanon,PITTSBURGH,Allegheny County,PA,15226,40.388202,-80.024949,SPA/HOT TUB (INDOOR),2023-04-27T13:15:00,2023-04-28T13:30:00,FOLLOW UP INSPECTION,t,2,ZIRNGIBL BARBARA,,,,,5,,7.4,,,45,t,t,t,t,t,t,2023-05-02
277456,205491,11360,MARRIOTT CITY CENTER / PITTSBURGH /  POOL,112 WASHINGTON PLACE,,Pittsburgh,Pittsburgh,Allegheny County,PA,15219,40.439781,-79.9921935,POOLS (INDOOR),2023-04-28T14:00:00,2023-05-01T14:25:00,FOLLOW UP INSPECTION,t,3,DAILY NATHAN,,,,,,,,,,,t,t,t,t,t,t,2023-05-04
277457,205575,1234,LA FITNESS NORTH HILLS SPA,8700 DUNCAN AVENUE,,McCandless,MC CANDLESS,Allegheny County,PA,15237,40.562811,-80.026578,SPA/HOT TUB (INDOOR),2023-05-04T09:45:00,2023-05-05T10:15:00,INITIAL INSPECTION,t,1,NOBBS SCOTT,3,,1.6,,,,7.2,,,110,t,t,f,t,t,t,2023-05-10
277458,205641,7735,COMFORT INN SUITES - POOL,180 GAMMA  DRIVE,,O'Hara Township,Pittsburgh,Allegheny County,PA,15238,40.501836,-79.8603885,POOLS (INDOOR),2023-05-05T14:30:00,2023-05-10T16:00:00,FOLLOW UP INSPECTION,t,5,FREEMAN MICHELE,4.2,4.2,0.2,0.2,0,0,7.2,7.2,<50,,t,t,f,t,t,t,2024-04-15
277459,205745,2153,LONGWOOD AT OAKMONT INDOOR CONDO SPA,500 COXCOMB HILL ROAD,,Plum,VERONA,Allegheny County,PA,15147,40.526397,-79.807095,SPA/HOT TUB (INDOOR),2023-05-12T14:31:00,2023-05-15T15:00:00,INITIAL INSPECTION,f,1,WILSON ANGELA,,,,,5,,7.6,,,90,t,t,t,t,t,t,2023-05-15
277460,205961,7695,STAYBRIDGE SUITES POOL,239 SUMMIT PARK DRIVE,,North Fayette Township,Pittsburgh,Allegheny County,PA,15275,40.448313,-80.1784215,POOLS (INDOOR),2023-05-24T10:35:00,2023-05-30T11:10:00,INITIAL INSPECTION,t,1,MANOWN MARYANN,7,,1,,,,7.6,,,75,t,t,t,t,t,t,2023-05-31
277461,205969,953,BALDWIN HIGH SCHOOL POOL,4653 CLAIRTON BOULEVARD,,Whitehall,PITTSBURGH,Allegheny County,PA,15236,40.355631,-79.977339,POOLS (SCHOOLS),2023-05-31T09:30:00,2023-05-31T09:35:00,FOLLOW UP INSPECTION,t,5,O'BRIEN JEFF,,,,,,,,,,,t,t,f,t,t,t,2023-05-31
277462,206051,1227,COBBLESTONE CONDOMINIUM/ POOL,175 COBBLESTONE DRIVE,,Ohio Township,PITTSBURGH,Allegheny County,PA,15237,40.539132,-80.082693,POOL (CONDO OUTDOOR),2023-06-02T14:45:00,2023-06-05T15:40:00,INITIAL INSPECTION,t,1,NOBBS SCOTT,1.4,,0,,,,7.4,,,,t,t,f,t,t,t,2023-06-14
277463,206061,2090,BELMONT RIDGE OUTDOOR POOL,1100 BELMONT BOULEVARD,,Monroeville,MONROEVILLE,Allegheny County,PA,15146,40.432599,-79.7793975,POOLS (OUTDOOR),2023-06-01T01:30:00,2023-06-05T02:45:00,INITIAL INSPECTION,f,1,MURPHY COLLEEN,4,,0,,,,7.2,,,180,t,t,t,t,t,t,2023-06-05
277464,206064,555,WALNUT CROSSING POOL,4175 IVANHOE DRIVE,,Monroeville,MONROEVILLE,Allegheny County,PA,15146,40.435893,-79.763526,POOLS (OUTDOOR),2023-06-01T03:00:00,2023-06-05T04:30:00,INITIAL INSPECTION,f,1,MURPHY COLLEEN,4,,0,,,,7.4,,,200,t,t,t,t,t,t,2023-06-05
277465,206107,2388,EDGETOWN CONDO POOL,205 CORAOPOLIS ROAD,,Kennedy Township,KENNEDY TWP.,Allegheny County,PA,15108,40.499388,-80.1120645,POOL (CONDO OUTDOOR),2023-06-06T14:00:00,2023-06-07T14:40:00,INITIAL INSPECTION,t,1,LAURIA D. ANTHONY,5.6,5.6,0,0,,,7.3,7.3,30ppm,80,t,t,t,t,t,t,2023-06-13
277466,206108,10878,RESIDENCE AT THE WATERFRONT POOL,611 E WATERFRONT DRIVE,,Munhall,Homestead,Allegheny County,PA,15120,40.414284,-79.9052985,POOLS (OUTDOOR),2023-06-06T13:00:00,2023-06-07T14:30:00,INITIAL INSPECTION,t,1,DAILY NATHAN,2.2,2.2,0,0,,,7.8,7.8,,,t,f,t,t,t,t,2023-07-19
277467,206110,2415,FOX HOLLOW CONDO POOL,650 COLLEGE PARK DRIVE,,Moon Township,CORAOPOLIS,Allegheny County,PA,15108,,,POOL (CONDO OUTDOOR),2023-06-06T15:00:00,2023-06-07T15:30:00,INITIAL INSPECTION,f,1,LAURIA D. ANTHONY,3,3,0,0,,,7.4,7.4,,80,t,t,t,t,t,t,2023-06-19
277468,206112,2387,STANFORD COURT POOL,1200 STANFORD COURT,,Kennedy Township,KENNEDY TWP.,Allegheny County,PA,15108,40.492278,-80.110395,POOL (CONDO OUTDOOR),2023-06-06T13:00:00,2023-06-07T13:40:00,INITIAL INSPECTION,f,1,LAURIA D. ANTHONY,1.6,1.6,0,0,,,7.6,7.6,,90,t,t,t,t,t,t,2023-06-19
277469,206120,2324,KIWANIS PARK / CRAWFORD POOL,1 MEYER ROAD,,Shaler Township,GLENSHAW,Allegheny County,PA,15116,40.524399,-79.965585,POOLS (OUTDOOR),2023-06-06T14:40:00,2023-06-07T15:30:00,INITIAL INSPECTION,f,1,NOBBS SCOTT,1.4,1.2,0,0,,,7.6,7.6,30,1850,t,t,t,t,t,t,2023-06-19
277470,206174,2092,FOX HILL APTS POOL,1145 FOX HILL DRIVE,#T4,Monroeville,MONROEVILLE,Allegheny County,PA,15146,40.440609,-79.784721,POOLS (OUTDOOR),2023-06-08T11:00:00,2023-06-09T11:45:00,INITIAL INSPECTION,t,1,MURPHY COLLEEN,4.8,,0.2,,,,7.2,,,65,t,t,t,t,t,t,2023-08-04
277471,206208,2207,EDGEWORTH SWIM CLUB MAIN POOL,511 EAST DRIVE,,Edgeworth,SEWICKLEY,Allegheny County,PA,15143,40.546197,-80.18784,POOLS (OUTDOOR),2023-06-12T13:45:00,2023-06-13T14:15:00,INITIAL INSPECTION,t,1,LAURIA D. ANTHONY,3,3,0,0,,,7.4,7.4,,,t,t,t,t,t,t,2023-07-11
277472,206229,10739,CAMBRIA SUITES PGH @ PPG PAINTS ARENA SPA,1320 CENTRE AVENUE,,Pittsburgh,Pittsburgh,Allegheny County,PA,15219,40.440087,-79.987977,SPA/HOT TUB (INDOOR),2023-06-13T13:30:00,2023-06-14T14:15:00,FOLLOW UP INSPECTION,t,4,DAILY NATHAN,,,,,,,,,,,t,t,f,t,t,t,2024-01-05
277473,206231,9737,CITY VIEW APARTMENTS POOL,1420 CENTRE AVENUE,,Pittsburgh,Pittsburgh,Allegheny County,PA,15219,40.44042,-79.986429,POOLS (OUTDOOR),2023-06-13T14:30:00,2023-06-14T15:15:00,INITIAL INSPECTION,t,1,DAILY NATHAN,9.8,9.8,0,0,,,7.4,7.4,,,t,t,t,t,t,t,2023-06-15
277474,206251,553,AVALON POOL,708 NEW BRIGHTON ROAD,,Avalon,PITTSBURGH,Allegheny County,PA,15202,40.50468,-80.0648055,POOLS (OUTDOOR),2023-06-14T15:15:00,2023-06-15T16:15:00,INITIAL INSPECTION,t,1,LAURIA D. ANTHONY,2.2,2.2,0,0,,,7.4,7.4,,559,t,t,f,t,t,t,2023-06-23
277475,206256,2298,CHARLEMAGNE II POOL,4000 CHARLEMAGNE CIRCLE,,Ross Township,PITTSBURGH,Allegheny County,PA,15237,40.544298,-80.0171145,POOL (CONDO OUTDOOR),2023-06-12T13:30:00,2023-06-15T14:15:00,FOLLOW UP INSPECTION,t,5,NOBBS SCOTT,1,,0,,,,7.6,,,40,t,t,f,t,t,t,2023-07-11
277476,206290,1305,SAMPSON YMCA OUTDOOR POOL,2200 GOLDEN MILE  HIGHWAY,Rt#286,Plum,PITTSBURGH,Allegheny County,PA,15239,40.458069,-79.707636,POOLS (OUTDOOR),2023-06-13T14:10:00,2023-06-16T14:50:00,INITIAL INSPECTION,t,1,O'BRIEN JEFF,2.5,,0,,,,7.4,,<30,550,t,t,f,t,t,t,2023-08-04
277477,206292,3901,SAMPSON FAMILY YMCA THERAPY POOL,2200 GOLDEN MILE HIGHWAY,,Plum,PITTSBURGH,Allegheny County,PA,15239,40.458069,-79.707636,POOLS (INDOOR),2023-06-13T15:30:00,2023-06-16T16:00:00,INITIAL INSPECTION,t,1,O'BRIEN JEFF,1.6,,0.8,,,,7.2,,,,t,t,t,t,t,t,2023-08-03
277478,206320,8936,PARK WEST 205 APARTMENT POOL,1000 PARK WEST PLACE,,Robinson Township,Pittsburgh,Allegheny County,PA,15205,40.433139,-80.14266,POOLS (OUTDOOR),2023-06-15T11:15:00,2023-06-19T11:50:00,FOLLOW UP INSPECTION,t,4,MANOWN MARYANN,3,,0.2,,,,7.6,,50,75,t,t,t,t,t,t,2023-06-22
277479,206324,2536,HICKORY HEIGHTS POOL ASSOC,118 HICKORY HEIGHTS DRIVE,,South Fayette Township,BRIDGEVILLE,Allegheny County,PA,15017,40.340889,-80.14149,POOLS (OUTDOOR),2023-06-15T13:00:00,2023-06-19T13:50:00,FOLLOW UP INSPECTION,t,3,ZIRNGIBL BARBARA,1.5,1.5,0,0,,,7.4,7.4,0,240,t,t,f,t,t,t,2023-08-04
277480,206351,553,AVALON POOL,708 NEW BRIGHTON ROAD,,Avalon,PITTSBURGH,Allegheny County,PA,15202,40.50468,-80.0648055,POOLS (OUTDOOR),2023-06-20T09:00:00,2023-06-20T09:20:00,FOLLOW UP INSPECTION,t,2,LAURIA D. ANTHONY,2.2,2.2,0,0,,,7.4,7.4,,559,t,t,f,t,t,t,2023-06-23
277481,206352,2287,CHAPEL GATE SWIM CLUB POOL,119 GLEN DAVID DRIVE,PO Box 7735,O'Hara Township,PGH,Allegheny County,PA,15238,40.532472,-79.918713,POOLS (OUTDOOR),2023-06-07T15:00:00,2023-06-20T16:00:00,INITIAL INSPECTION,t,1,FREEMAN MICHELE,2.4,2.4,0.2,0.2,0,0,7.4,7.4,<50,750,t,t,t,t,t,t,2023-06-21
277482,206412,2049,PHILLIPS POOL/CITY OF PITTSBURGH,203 PARKFIELD STREET,,Pittsburgh,PITTSBURGH,Allegheny County,PA,15210,,,POOLS (OUTDOOR),2023-06-21T14:00:00,2023-06-22T14:45:00,INITIAL INSPECTION,f,1,ZIRNGIBL BARBARA,2.8,2,2.8,2,,,7.2,7.2,0,600,t,t,t,t,t,t,2023-06-23
277483,206415,2013,ORMSBY POOL / CITY OF PITTSBURGH,79 S 22ND STREET,,Pittsburgh,PITTSBURGH,Allegheny County,PA,15203,40.429125,-79.9743375,POOLS (OUTDOOR),2023-06-21T15:10:00,2023-06-22T15:45:00,INITIAL INSPECTION,t,1,ZIRNGIBL BARBARA,1,1.4,1,1.4,,,7.0,7.0,< 30,650,t,t,t,t,f,t,2023-07-20
277484,206417,2277,O'HARA WOODS APTS POOL,100 OHARA WOODS DRIVE,,O'Hara Township,PGH,Allegheny County,PA,15238,40.499424,-79.857549,POOLS (OUTDOOR),2023-06-20T13:30:00,2023-06-22T14:30:00,INITIAL INSPECTION,t,1,FREEMAN MICHELE,3.2,3.4,0,0,0,0,7.4,7.4,>50,140,t,t,t,t,t,t,2023-06-26
277485,206423,2220,INGOMAR SWIM CLUB POOL, INGOMAR HEIGHTS ROAD,,Franklin Park,PITTSBURGH,Allegheny County,PA,15237,,,POOLS (OUTDOOR),2023-06-20T14:30:00,2023-06-22T15:00:00,INITIAL INSPECTION,t,1,NOBBS SCOTT,1.8,1.6,0,0,,,7.4,7.4,,500,t,t,t,t,t,t,2023-06-23
277486,206424,2505,INGOMAR SWIM CLUB WADING POOL, INGOMAR HEIGHTS ROAD,,Franklin Park,PITTSBURGH,Allegheny County,PA,15237,,,WADING POOL SYSTEM,2023-06-20T15:00:00,2023-06-22T15:30:00,INITIAL INSPECTION,t,1,NOBBS SCOTT,1,,0,,,,7.2,,,20,t,t,t,t,t,t,2023-06-23
277487,206436,9958,ONE ON CENTRE APARTMENTS SPA,4500 CENTRE AVENUE,,Pittsburgh,Pittsburgh,Allegheny County,PA,15213,40.451391,-79.953039,SPA/HOT TUB (OUTDOOR),2023-06-21T15:10:00,2023-06-22T15:45:00,FOLLOW UP INSPECTION,t,3,MUSA AMINATA,1,,0.2,,,,7.0,,<30,120,t,t,f,t,f,t,2023-07-28
277488,206444,2226,WILDWOOD GOLF CLUB POOL,2195 SAMPLE ROAD,,Hampton Township,ALLISON PARK,Allegheny County,PA,15101,40.577562,-79.9845615,POOLS (OUTDOOR),2023-06-21T11:00:00,2023-06-23T11:30:00,INITIAL INSPECTION,t,1,NOBBS SCOTT,1.2,1.2,0,0,,,7.8,7.8,<30,650,t,t,f,t,t,t,2023-06-26
277489,206446,2227,WILDWOOD GOLF CLUB -  WADING POOL,2195 SAMPLE ROAD,,Hampton Township,ALLISON PARK,Allegheny County,PA,15101,40.577562,-79.9845615,WADING POOL SYSTEM,2023-06-21T10:50:00,2023-06-23T11:00:00,INITIAL INSPECTION,f,1,NOBBS SCOTT,1.8,,0.2,,,,7.2,,,40,t,t,t,t,t,t,2023-06-29
277490,206452,1084,HICKORY HILLS APARTMENTS POOL,100 ARTHUR DRIVE,,McCandless,WEXFORD,Allegheny County,PA,15090,40.590108,-80.0326125,POOLS (OUTDOOR),2023-06-16T11:30:00,2023-06-23T12:00:00,INITIAL INSPECTION,f,1,NOBBS SCOTT,4.4,,0,,,,7.4,,,110,t,t,t,t,t,t,2023-06-27
277491,206453,934,FOREST OAKS OF WEXFORD - POOL,10570 FOREST OAKS DRIVE,,McCandless,MC CANDLESS,Allegheny County,PA,15090,40.610907,-80.0581455,POOL (CONDO OUTDOOR),2023-06-16T12:35:00,2023-06-23T13:15:00,INITIAL INSPECTION,t,1,NOBBS SCOTT,1.6,1.2,0.2,0,,,7.6,7.6,30,100,t,t,f,t,t,t,2023-06-27
277492,206456,6002,SUMMER SEAT HOA POOL,105 GATEWAY DRIVE,,Ohio Township,PITTSBURGH,Allegheny County,PA,15237,40.537017,-80.095419,POOL (CONDO OUTDOOR),2023-06-16T14:50:00,2023-06-23T15:15:00,INITIAL INSPECTION,t,1,NOBBS SCOTT,2.4,,0,,,,7.6,,60,130,t,t,t,t,t,t,2023-06-23
277493,206458,1208,PITTSBURGH PLAZA HOTEL - PITTSBURGH WEST POOL,401 HOLIDAY DRIVE,,Green Tree,PITTSBURGH,Allegheny County,PA,15220,40.420404,-80.0566785,POOLS (OUTDOOR),2023-06-21T16:00:00,2023-06-23T16:05:00,INITIAL INSPECTION,f,1,MANOWN MARYANN,,,,,,,,,,,t,t,t,t,t,t,2023-06-27
277494,206505,8898,SEWICKLEY RIDGE SPA,148 FREEDOM LANE,,Ohio Township,Sewickley,Allegheny County,PA,15143,40.538754,-80.1167985,SPA/HOT TUB (OUTDOOR),2023-06-23T09:00:00,2023-06-26T09:30:00,INITIAL INSPECTION,t,1,NOBBS SCOTT,6,,0.2,,,,7.2,,,55,t,t,t,t,t,t,2023-06-29
277495,206509,10217,BAYWOOD CONFERENCE & LODGING CENTER - POOL,1442 CORAOPOLIS HEIGHTS ROAD,,Moon Township,Coraopolis,Allegheny County,PA,15108,40.507047,-80.187201,POOLS (OUTDOOR),2023-06-22T13:35:00,2023-06-26T14:10:00,FOLLOW UP INSPECTION,t,2,MANOWN MARYANN,5,,0,,,,7.4,,<30,60,t,t,f,t,t,t,2023-06-28
277496,206513,2418,BOWER HILL AT MT LEBANON,1150 BOWER HILL ROAD,,Mount Lebanon,PITTSBURGH,Allegheny County,PA,15228,40.376223,-80.070264,POOL (CONDO OUTDOOR),2023-06-26T12:10:00,2023-06-26T12:35:00,INITIAL INSPECTION,f,1,ZIRNGIBL BARBARA,2.4,,2.4,,,,7.4,,,120,t,t,t,t,t,t,2023-06-29
277497,206528,9697,HAMPSHIRE HOUSE APT POOL,195 MT LEBANON BOULEVARD,,Mount Lebanon,Pittsburgh,Allegheny County,PA,15228,40.368321,-80.0388225,POOLS (OUTDOOR),2023-06-26T11:00:00,2023-06-27T11:45:00,FOLLOW UP INSPECTION,t,3,ZIRNGIBL BARBARA,,,,,6.4,,7.0,,,60,t,t,t,t,f,t,2023-08-25
277498,206544,4181,CLINTON LAKE POOL,124 CLINTON LAKE ROAD,,Findlay Township,CLINTON,Allegheny County,PA,15026,40.494411,-80.292708,POOLS (OUTDOOR),2023-06-22T14:55:00,2023-06-27T15:25:00,FOLLOW UP INSPECTION,t,2,MANOWN MARYANN,3,,0.2,,,,7.4,,50,100,t,t,f,t,t,t,2023-08-17
277499,206554,6941,HAMPTON INN / WEST MIFFLIN POOL,1550 LEBANON CHURCH  ROAD,,West Mifflin,WEST MIFFLIN,Allegheny County,PA,15236,40.346505,-79.9540155,POOLS (OUTDOOR),2023-06-27T14:00:00,2023-06-28T15:00:00,INITIAL INSPECTION,t,1,CONLEY FAON,5.4,5.4,0,0,,,7.6,7.6,,40,t,t,f,t,t,t,2024-08-09
277500,206556,2535,OXFORD ATHLETIC CLUB SPA,100 VILLAGE CLUB DRIVE,,Pine Township,PINE,Allegheny County,PA,15090,40.634046,-80.050635,SPA/HOT TUB (INDOOR),2023-06-26T15:30:00,2023-06-28T16:00:00,INITIAL INSPECTION,t,1,NOBBS SCOTT,,,,,2.75,,7.6,,,55,t,t,f,t,t,t,2023-08-15
277501,206588,6721,THE ALDEN SOUTH HILLS,5492 YOUNGRIDGE  DRIVE,,Baldwin,PITTSBURGH,Allegheny County,PA,15236,40.338585,-79.9788555,POOLS (OUTDOOR),2023-06-28T14:30:00,2023-06-30T15:30:00,FOLLOW UP INSPECTION,t,3,CONLEY FAON,2,2,0,0,,,7.4,7.4,,,t,t,f,t,t,t,2023-07-03
277502,206615,2100,H KAUFMANN  FAM & REC  PARK  POOL,261 ROSECREST DRIVE,,Monroeville,MONROEVILLE,Allegheny County,PA,15146,40.421385,-79.7834745,POOLS (OUTDOOR),2023-06-29T14:30:00,2023-07-03T15:30:00,INITIAL INSPECTION,f,1,MURPHY COLLEEN,4,,0,,,,7.4,,,1800,t,t,t,t,t,t,2023-07-03
277503,206617,1490,SOUTH POINTE TOWERS POOL,100 CERASI DRIVE,,Pleasant Hills,PLEASANT HILLS,Allegheny County,PA,15236,40.331043,-79.940412,POOLS (OUTDOOR),2023-06-19T13:00:00,2023-06-19T14:00:00,INITIAL INSPECTION,t,1,CONLEY FAON,2.4,2.4,0,0,0,0,7.4,7.4,,68,t,t,f,t,t,t,2024-07-30
277504,206621,1162,PITTSBURGH GOLF CLUB - WADING POOL,5280 NORTHUMBERLAND STREET,,Pittsburgh,PITTSBURGH,Allegheny County,PA,15217,40.440222,-79.9394445,POOLS (OUTDOOR),2023-06-30T14:30:00,2023-07-03T15:00:00,INITIAL INSPECTION,f,1,MURPHY COLLEEN,1,,0,,,,7.8,,,50,t,t,t,t,t,t,2023-07-03
277505,206623,1997,SCHENLEY PARK POOL / CITY OF PITTSBURGH,1 OVERLOOK DRIVE,,Pittsburgh,PITTSBURGH,Allegheny County,PA,15213,,,POOLS (OUTDOOR),2023-06-30T15:00:00,2023-07-03T15:30:00,INITIAL INSPECTION,f,1,MURPHY COLLEEN,1.6,,0,,,,7.4,,,800,t,t,t,t,t,t,2023-07-03
277506,206624,2217,SHADY SIDE ACADEMY SR SCHOOL POOL,423 FOX CHAPEL ROAD,,Fox Chapel,PITTSBURGH,Allegheny County,PA,15238,40.521996,-79.8869025,POOLS (SCHOOLS),2023-06-29T12:00:00,2023-07-03T13:00:00,INITIAL INSPECTION,t,1,FREEMAN MICHELE,2.6,2.6,0.2,0.2,0,0,7.2,7.2,<50,400,t,t,f,t,t,t,
277507,206629,2487,SANDCASTLE / WET WILLIE'S POOL,1000 SANDCASTLE DRIVE,,West Homestead,HOMESTEAD,Allegheny County,PA,15120,40.397805,-79.9272225,WADING POOL SYSTEM,2023-06-27T11:00:00,2023-07-03T15:00:00,INITIAL INSPECTION,f,1,DAILY NATHAN,2,2,0,0,,,7.4,7.6,,400,t,t,t,t,t,t,2023-07-07
277508,206635,1986,HIGHLAND PARK CLUB POOL,1001 N NEGLEY AVENUE,,Pittsburgh,PITTSBURGH,Allegheny County,PA,15206,40.474413,-79.925355,POOLS (OUTDOOR),2023-07-03T09:00:00,2023-07-03T09:30:00,FOLLOW UP INSPECTION,t,2,FREEMAN MICHELE,2.8,2.8,0.2,0.2,0,0,7.6,7.6,<50,40,t,t,t,t,t,t,2023-07-06
277509,206655,6801,ARSENAL 201 / POOL,3922 FOSTER STREET,,Pittsburgh,PITTSBURGH,Allegheny County,PA,15201,40.468941,-79.9645905,POOLS (OUTDOOR),2023-06-29T15:00:00,2023-07-05T16:00:00,INITIAL INSPECTION,f,1,DAILY NATHAN,2.5,,0,,,,7.4,,,100,t,t,t,t,t,t,2023-07-11
277510,206679,2297,VALLEY BROOK SWIM CLUB MAIN POOL,1 CALLENDAR  ROAD,,Ross Township,PITTSBURGH,Allegheny County,PA,15237,,,POOLS (OUTDOOR),2023-06-29T14:00:00,2023-07-06T14:30:00,INITIAL INSPECTION,t,1,NOBBS SCOTT,3,2.8,0.2,0,,,7.4,7.4,30,450,t,t,f,t,t,t,2023-09-08
277511,206680,15,VALLEY BROOK SWIM CLUB-WADING,1 CALLENDER  ROAD,,Ross Township,PITTSBURGH,Allegheny County,PA,15237,,,WADING POOL SYSTEM,2023-06-29T14:30:00,2023-07-06T15:00:00,INITIAL INSPECTION,t,1,NOBBS SCOTT,4.2,,0,,,,7.4,,,45,t,t,f,t,t,t,2023-09-08
277512,206728,9637,LINDENBROOKE APTS POOL,100 CASTLE DRIVE,,Bethel Park,Bethel Park,Allegheny County,PA,15102,40.289994,-80.0361945,POOLS (OUTDOOR),2023-07-10T10:30:00,2023-07-10T11:30:00,INITIAL INSPECTION,t,1,NABLO MARIAH,1.8,1.2,0,0,,,7.2,7.2,0,,t,t,f,t,t,t,2024-07-01
277513,206729,11800,FOX PLAN APARTMENT POOL,105 Fox Plan ROAD,,Monroeville,Monroeville,Allegheny County,PA,15146,40.434021,-79.761897,POOLS (OUTDOOR),2023-07-06T15:00:00,2023-07-10T16:00:00,INITIAL INSPECTION,f,1,MURPHY COLLEEN,5,,0,,,,7.4,,,120,t,t,t,t,t,t,2023-07-11
277514,206758,2255,INGOMAR NORTH SWIM CLUB POOL,456 OLIVE STREET,,McCandless,PITTSBURGH,Allegheny County,PA,15237,,,POOLS (OUTDOOR),2023-07-10T14:25:00,2023-07-11T15:10:00,INITIAL INSPECTION,t,1,NOBBS SCOTT,1,1,0,0,,,7.4,7.4,<30,,t,t,t,t,t,t,2023-07-14
277515,206759,2223,HUNTER'S POINT CONDO POOL,2551 C PHEASANT RUN DRIVE,,Franklin Park,WEXFORD,Allegheny County,PA,15090,40.604922,-80.0885925,POOL (CONDO OUTDOOR),2023-07-10T15:10:00,2023-07-11T15:35:00,FOLLOW UP INSPECTION,t,2,NOBBS SCOTT,,,,,,,,,30,85,t,t,f,t,t,t,2023-08-15
277516,206773,2444,CHESTNUT RIDGE APARTMENT POOL,3200 CHESTNUT RIDGE DRIVE,,ROBINSON TOWNSHIP,PITTSBURGH,Allegheny County,PA,15205,40.435713,-80.155962,POOLS (OUTDOOR),2023-07-07T11:10:00,2023-07-11T11:45:00,INITIAL INSPECTION,t,1,MANOWN MARYANN,2,,0,,,,7.6,,50,60,t,t,t,t,t,t,2023-07-12
277517,206788,2471,MONTCLAIR POOL,1217 SHERBROOK DRIVE,,Upper St Clair Township,PITTSBURGH,Allegheny County,PA,15241,40.345146,-80.0950095,POOL (CONDO OUTDOOR),2023-07-11T15:10:00,2023-07-12T16:00:00,INITIAL INSPECTION,f,1,ZIRNGIBL BARBARA,1,,1,1,,,7.4,7.4,< 30,200,t,t,t,t,t,t,2023-07-14
277518,206790,9717,KAUFMANNS GRAND ON 5TH POOL,434 5TH AVENUE,,Pittsburgh,Pittsburgh,Allegheny County,PA,15219,40.439691,-79.9980705,POOLS (OUTDOOR),2023-07-05T10:00:00,2023-07-12T10:15:00,INITIAL INSPECTION,f,1,MURPHY COLLEEN,4,,0,,,,7.4,,,90,t,t,t,t,t,t,2023-07-05
277519,206799,6861,LIBERTY POINTE APARTMENTS POOL,35 HIGHLAND ROAD,,Bethel Park,BETHEL PARK,Allegheny County,PA,15102,40.349763,-80.04996,POOLS (OUTDOOR),2023-07-12T10:30:00,2023-07-12T11:15:00,INITIAL INSPECTION,f,1,NABLO MARIAH,2.2,,0.2,,,,7.4,,0,135,t,t,t,t,t,t,2023-07-14
277520,206800,2347,BRIGHTWOOD PLAZA POOL,4940 BRIGHTWOOD ROAD,,Bethel Park,BETHEL PARK,Allegheny County,PA,15102,40.339539,-80.0273565,POOLS (OUTDOOR),2023-07-12T11:45:00,2023-07-12T12:15:00,INITIAL INSPECTION,f,1,NABLO MARIAH,3,,0,,,,7.6,,0,80,t,t,t,t,t,t,2024-08-05
277521,206805,2141,OLYMPIC SWIM CLUB POOL,517 TWIN OAK DRIVE,,Penn Hills,PITTSBURGH,Allegheny County,PA,15235,40.478976,-79.790445,POOLS (INDOOR),2023-07-10T03:15:00,2023-07-12T04:30:00,INITIAL INSPECTION,t,1,MUSA AMINATA,2.5,2.5,1,0.5,,,7.6,7.6,,308,t,t,t,t,t,t,2023-07-28
277522,206825,8776,BRACKEN HOUSE NORTH SHORE POOL,100 ANDERSON STREET,,PITTSBURGH,Pittsburgh,Allegheny County,PA,15212,40.448628,-79.9993575,POOLS (OUTDOOR),2023-07-11T13:15:00,2023-07-13T14:00:00,INITIAL INSPECTION,t,1,NOBBS SCOTT,1.6,,0.2,,,,7.2,,<30,110,t,t,t,t,t,t,2023-08-15
277523,206827,2038,SUE MURRAY POOL/CITY OF PITTSBURGH,301 CEDAR AVENUE,,Pittsburgh,PITTSBURGH,Allegheny County,PA,15212,40.450968,-80.001315,POOLS (OUTDOOR),2023-07-12T13:45:00,2023-07-13T15:00:00,INITIAL INSPECTION,f,1,NOBBS SCOTT,1.6,1.4,0,0,,,7.4,7.4,<30,10000,t,t,t,t,t,t,2023-07-14
277524,206849,2006,MAXON TOWERS APT POOL,6315 FORBES AVENUE,,Pittsburgh,PITTSBURGH,Allegheny County,PA,15217,40.438323,-79.918281,POOLS (OUTDOOR),2023-07-13T10:00:00,2023-07-14T10:45:00,INITIAL INSPECTION,f,1,MURPHY COLLEEN,4,,0,,,,7.8,,,150,t,t,t,t,t,t,2023-07-14
277525,206861,6841,OAKMONT COUNTRY CLUB POOL,1233 HULTON ROAD,,Plum,OAKMONT,Allegheny County,PA,15139,40.525956,-79.827048,POOLS (OUTDOOR),2023-07-12T10:50:00,2023-07-14T11:30:00,INITIAL INSPECTION,f,1,MUSA AMINATA,2,3,0,0,,,7.2,7.2,30>,700,t,t,t,t,t,t,2023-08-04
277526,206863,6863,OAKMONT COUNTRY CLUB WADING POOL,1233 HULTON ROAD,,Plum,OAKMONT,Allegheny County,PA,15139,40.525956,-79.827048,WADING POOL SYSTEM,2023-07-12T10:50:00,2023-07-14T11:30:00,INITIAL INSPECTION,f,0,MUSA AMINATA,3.5,,,,,,7.4,,30>,40,t,t,t,t,t,t,2023-08-04
277527,206886,1411,BRIGHT OAKS APARTMENT POOL,300 OLD MILL  ROAD,,North Fayette Township,OAKDALE,Allegheny County,PA,15071,40.419711,-80.216649,POOLS (OUTDOOR),2023-07-10T11:55:00,2023-07-14T12:35:00,INITIAL INSPECTION,t,1,MANOWN MARYANN,0,,0.2,,,,7.2,,50,,t,t,t,t,t,f,
277528,206892,4041,MYSTIC HILLS POL ASSOCIATION,101 PAPPAN DRIVE,,Findlay Township,IMPERIAL,Allegheny County,PA,15126,40.456746,-80.242236,POOL (CONDO OUTDOOR),2023-07-13T09:25:00,2023-07-14T10:05:00,FOLLOW UP INSPECTION,t,4,MANOWN MARYANN,3.5,,0.2,,,,7.6,,>100,22,t,t,f,t,t,t,2023-11-06
277529,206910,1133,CROWNE PLAZA - PITTSBURGH SOUTH POOL,164 FORT COUCH ROAD,,Bethel Park,PITTSBURGH,Allegheny County,PA,15241,40.345884,-80.052615,POOLS (OUTDOOR),2023-07-14T14:00:00,2023-07-17T14:30:00,INITIAL INSPECTION,t,1,NABLO MARIAH,2.2,,0,,,,7.8,,0,80,t,t,f,t,t,t,2023-08-03
277530,206915,1225,WADSWORTH HALL COMMUNITY CENTER POOL,480 OAK HILL DRIVE,,Pittsburgh,PITTSBURGH,Allegheny County,PA,15213,40.442733,-79.9695855,POOLS (OUTDOOR),2023-07-14T12:30:00,2023-07-17T13:00:00,FOLLOW UP INSPECTION,t,2,NABLO MARIAH,,,,,,,7.6,,,,t,t,f,t,t,t,2024-07-23
277531,206928,2315,MEWS POOL,710 BROWNS LANE,,Ross Township,PITTSBURGH,Allegheny County,PA,15237,40.5459,-80.020944,POOL (CONDO OUTDOOR),2023-07-13T13:00:00,2023-07-17T14:00:00,INITIAL INSPECTION,f,1,NOBBS SCOTT,1.4,,0,,,,7.4,,0,275,t,t,t,t,t,t,2023-07-20
277532,206932,2249,WINDWOOD PARK POOL,903 LAKE ROAD,,Marshall Township,BRADFORD WOODS,Allegheny County,PA,15015,40.628232,-80.09001,WADING POOL SYSTEM,2023-07-13T14:30:00,2023-07-17T15:00:00,INITIAL INSPECTION,t,1,NOBBS SCOTT,1.4,3,0.2,0,,,7.6,7.6,<30,,t,t,f,t,t,t,
277533,206933,56,WINDWOOD PARKS / WATER SLIDE POOL,903 LAKE ROAD,,Marshall Township,BRADFORD WOODS,Allegheny County,PA,15015,40.628232,-80.09001,WATER SLIDE POOLS,2023-07-13T15:00:00,2023-07-17T15:30:00,INITIAL INSPECTION,t,1,NOBBS SCOTT,1.4,,0,,,,7.4,,,,t,t,f,t,t,t,
277534,206935,6901,HEMLOCK'S OWNERS POOL, LAUREL OAK DRIVE,,Hampton Township,ALLISON PARK,Allegheny County,PA,15101,,,POOL (CONDO OUTDOOR),2023-07-14T11:00:00,2023-07-17T11:45:00,INITIAL INSPECTION,f,1,NOBBS SCOTT,2.2,2.4,0,0,,,7.2,7.2,<30,120,t,t,t,t,t,t,2023-07-20
277535,206951,856,BAIERL FAMILY YMCA  POOL - OUTDOOR,2565 NICHOLSON ROAD,,Franklin Park,SEWICKLEY,Allegheny County,PA,15143,40.609584,-80.1010035,POOLS (OUTDOOR),2023-07-17T14:35:00,2023-07-18T15:35:00,INITIAL INSPECTION,f,1,NOBBS SCOTT,2.2,2.2,0,0,,,7.2,7.2,<30,450,t,t,t,t,t,t,2023-08-03
277536,206954,861,CASTLE RIDGE APT POOL,850 BALDWIN  STREET,,Castle Shannon,PITTSBURGH,Allegheny County,PA,15234,40.363947,-80.0327475,POOLS (OUTDOOR),2023-07-17T14:40:00,2023-07-18T15:10:00,FOLLOW UP INSPECTION,t,2,ZIRNGIBL BARBARA,2,,2,,,,7.4,,40,50,t,t,f,t,t,t,2023-08-08
277537,206956,2069,BRYN MAWR APTS POOL,100 BRYN MAWR COURT,,Forest Hills,FOREST HILLS,Allegheny County,PA,15221,40.434669,-79.8655185,POOLS (OUTDOOR),2023-07-17T10:30:00,2023-07-18T11:30:00,INITIAL INSPECTION,f,1,MURPHY COLLEEN,5,,0,,,,7.8,,,60,t,t,t,t,t,t,2023-07-28
277538,207005,1972,AMMON POOL/CITY OF PITTSBURGH,2217 BEDFORD AVENUE,,Pittsburgh,PITTSBURGH,Allegheny County,PA,15219,40.448718,-79.9778835,POOLS (OUTDOOR),2023-07-13T13:00:00,2023-07-19T15:00:00,INITIAL INSPECTION,t,1,FREEMAN MICHELE,0.6,0.6,0,0,,,7.2,7.2,<50,1200,t,t,t,t,t,f,2023-11-14
277539,207031,213,HOLIDAY INN EXPRESS POOL,3053 WASHINGTON PIKE,,South Fayette Township,BRIDGEVILLE,Allegheny County,PA,15017,40.352292,-80.112681,POOLS (INDOOR),2023-07-19T09:45:00,2023-07-19T10:00:00,FOLLOW UP INSPECTION,t,2,ZIRNGIBL BARBARA,5,,0,,,,7.2,,50,20,t,t,f,t,t,t,2023-07-20
277540,207049,3906,SAMPSON FAMILY YMCA MAIN POOL,2200 GOLDEN MILE HIGHWAY,,Plum,PITTSBURGH,Allegheny County,PA,15239,40.458069,-79.707636,POOLS (INDOOR),2023-07-19T11:30:00,2023-07-20T12:00:00,FOLLOW UP INSPECTION,t,2,MUSA AMINATA,1.2,,0.8,,,,,,,,t,t,f,t,t,t,2023-08-04
277541,207052,3901,SAMPSON FAMILY YMCA THERAPY POOL,2200 GOLDEN MILE HIGHWAY,,Plum,PITTSBURGH,Allegheny County,PA,15239,40.458069,-79.707636,POOLS (INDOOR),2023-07-19T11:30:00,2023-07-20T12:00:00,FOLLOW UP INSPECTION,t,2,MUSA AMINATA,3.2,,1,,,,,,,,t,t,t,t,t,t,2023-08-03
277542,207058,772,BELLEVUE MEMORIAL WADING POOL,320 BELLEVUE ROAD,,Ross Township,PITTSBURGH,Allegheny County,PA,15202,40.504257,-80.0411355,WADING POOL SYSTEM,2023-07-17T14:00:00,2023-07-20T14:30:00,INITIAL INSPECTION,f,1,NOBBS SCOTT,2.6,,0,,,,7.4,,,110,t,t,t,t,t,t,2023-08-15
277543,207059,2260,BROOK PARK - POOL,801 FASSINGER LANE,,McCandless,PITTSBURGH,Allegheny County,PA,15237,,,POOLS (OUTDOOR),2023-07-17T15:00:00,2023-07-20T15:15:00,FOLLOW UP INSPECTION,t,2,NOBBS SCOTT,,,,,,,,,,,t,t,f,t,t,t,2023-08-17
277544,207067,844,GLENMORE FARMS CONDO POOL,199 ROSE CIRCLE,,Richland Township,GIBSONIA,Allegheny County,PA,15044,40.625253,-79.9486335,POOL (CONDO OUTDOOR),2023-07-19T09:30:00,2023-07-20T10:00:00,INITIAL INSPECTION,f,1,NOBBS SCOTT,3.6,,0,,,,7.4,,50,80,t,t,t,t,t,t,2023-08-08
277545,207070,10837,TRADITIONS OF AMERICA SPA,101 Patriot LANE,,Richland Township,Gibsonia,Allegheny County,PA,15044,40.659471,-79.981245,SPA/HOT TUB (OUTDOOR),2023-07-19T10:45:00,2023-07-20T11:15:00,INITIAL INSPECTION,t,1,NOBBS SCOTT,11,,0.2,,,,7.6,,,60,t,t,f,t,t,t,2023-08-08
277546,207075,2238,SYLVAN PARK POOL,1800 SYLVAN AVENUE,,Harrison Township,NATRONA HEIGHTS,Allegheny County,PA,15065,40.636044,-79.7226525,WADING POOL SYSTEM,2022-06-21T14:00:00,2023-07-20T15:00:00,FOLLOW UP INSPECTION,t,2,FREEMAN MICHELE,2.8,2.8,0,0,0,0,7.4,7.4,<50,1113,t,t,f,t,t,t,2023-07-20
277547,207076,263,RICHLAND SWIM CLUB WADING POOL,4104 DICKEY ROAD,,Richland Township,GIBSONIA,Allegheny County,PA,15044,40.642812,-79.9457715,WADING POOL SYSTEM,2023-07-19T14:00:00,2023-07-20T14:30:00,INITIAL INSPECTION,t,1,NOBBS SCOTT,1,,0.2,,,,7.2,,,90,t,t,t,t,t,t,2023-08-08
277548,207077,8817,PINE PARK SPRAY PAD,123 PINE PARK DRIVE,,Pine Township,Wexford,Allegheny County,PA,15090,40.662225,-80.040231,WADING POOL SYSTEM,2023-07-19T15:00:00,2023-07-20T15:30:00,INITIAL INSPECTION,t,1,NOBBS SCOTT,2.4,,0.2,,,,7.4,,,220,t,t,f,t,t,t,2023-08-08
277549,207088,1486,SHERATON PITTSBURGH AIRPORT HOTEL / POOL,1160 THORN RUN ROAD,,Moon Township,CORAOPOLIS,Allegheny County,PA,15108,40.501863,-80.2100205,POOLS (OUTDOOR),2023-07-18T14:50:00,2023-07-20T15:30:00,INITIAL INSPECTION,t,1,MANOWN MARYANN,5,,0,,,,7.2,,35,83,t,t,f,t,t,t,2023-09-11
277550,207139,5443,THE YARDS @ 3 CROSSINGS - SPA,2625 RAILROAD STREET,,Pittsburgh,PITTSBURGH,Allegheny County,PA,15222,,,SPA/HOT TUB (OUTDOOR),2023-07-20T15:30:00,2023-07-24T16:30:00,INITIAL INSPECTION,t,1,NABLO MARIAH,,,,,0.6,,7.2,,,70,t,t,t,t,t,f,2023-07-25
277551,207140,5443,THE YARDS @ 3 CROSSINGS - SPA,2625 RAILROAD STREET,,Pittsburgh,PITTSBURGH,Allegheny County,PA,15222,,,SPA/HOT TUB (OUTDOOR),2023-07-21T14:00:00,2023-07-24T14:30:00,FOLLOW UP INSPECTION,t,2,NABLO MARIAH,,,,,3.6,,7.4,,,70,t,t,t,t,t,t,2023-07-25
277552,207142,10577,THE DISTRICT - POOL,1759 Waterfront PLACE,,Pittsburgh,Pittsburgh,Allegheny County,PA,15222,40.451589,-79.987347,POOLS (OUTDOOR),2023-07-21T14:00:00,2023-07-24T14:30:00,INITIAL INSPECTION,t,1,NABLO MARIAH,3.4,,0.2,,,,7.8,,60,80,t,t,f,t,t,t,2023-08-17
277553,207143,6781,EDGE 1909 AT RIVERFRONT LANDING,1909 WATERFRONT PLACE,,Pittsburgh,PITTSBURGH,Allegheny County,PA,15222,40.45239,-79.9863435,POOLS (OUTDOOR),2023-07-21T15:00:00,2023-07-24T15:30:00,INITIAL INSPECTION,t,1,NABLO MARIAH,5.8,,0.2,,,,7.4,,60,180,t,t,f,t,t,t,2023-08-17
277554,207169,10679,THE CORK FACTORY LOFTS POOL,2349 RAILROAD STREET,,Pittsburgh,Pittsburgh,Allegheny County,PA,15222,40.454685,-79.9833735,POOLS (OUTDOOR),2023-07-21T11:30:00,2023-07-25T12:00:00,INITIAL INSPECTION,f,1,MURPHY COLLEEN,2,,0,,,,7.6,,,60,t,t,t,t,t,t,2023-07-31
277555,207170,10680,THE CORK FACTORY LOFTS-SPA,2349 RAILROAD STREET,,Pittsburgh,Pittsburgh,Allegheny County,PA,15222,40.454685,-79.9833735,SPA/HOT TUB (OUTDOOR),2023-07-21T12:00:00,2023-07-25T12:15:00,INITIAL INSPECTION,f,1,MURPHY COLLEEN,2.5,,0,,,,7.4,,,50,t,t,t,t,t,t,2023-07-31
277556,207174,10678,LOT 24 - SPA,2404 RAILROAD STREET,,Pittsburgh,Pittsburgh,Allegheny County,PA,15222,40.454865,-79.9817175,SPA/HOT TUB (OUTDOOR),2023-07-21T12:45:00,2023-07-25T13:00:00,INITIAL INSPECTION,f,1,MURPHY COLLEEN,4.6,,0,,,,7.4,,,50,t,t,t,t,t,t,2023-08-01
277557,207216,365,GREENTREE WILSON PARK WADING POOL,825 POPLAR STREET,,Green Tree,PITTSBURGH,Allegheny County,PA,15220,40.418658,-80.050122,WADING POOL SYSTEM,2023-07-25T14:50:00,2023-07-27T15:15:00,INITIAL INSPECTION,t,1,MANOWN MARYANN,3,,0,,,,7.4,,<30,60,t,t,f,t,t,t,2023-07-27
277558,207230,5842,SPENCER FAMILY YMCA - LAP POOL,305 CHURCH ROAD,,Bethel Park,BETHEL PARK,Allegheny County,PA,15102,40.337496,-80.044317,POOLS (INDOOR),2023-07-27T09:00:00,2023-07-27T09:30:00,FOLLOW UP INSPECTION,t,2,NABLO MARIAH,,,,,,,7.0,,,255,t,t,t,t,f,t,2023-10-20
277559,207255,2457,CARRIAGE PARK APTS POOL,300 CHATHAM PARK DRIVE,,Scott Township,PITTSBURGH,Allegheny County,PA,15220,40.401054,-80.057961,POOLS (OUTDOOR),2023-07-27T14:20:00,2023-07-28T15:00:00,INITIAL INSPECTION,f,1,ZIRNGIBL BARBARA,,3,,0.2,,,7.4,,50,250,t,t,t,t,t,t,2023-08-15
